city_ascii,country,region,latitude,longitude,population,iso2,iso3,admin_name,city
Kabul,Afghanistan,Asia & Pacific ,34.5328,69.1658,3678034,AF,AFG,Kābul,Kabul
Kandahar,Afghanistan,Asia & Pacific ,31.6078,65.7053,491500,AF,AFG,Kandahār,Kandahār
Herat,Afghanistan,Asia & Pacific ,34.3738,62.1792,436300,AF,AFG,Herāt,Herāt
Mazar-e Sharif,Afghanistan,Asia & Pacific ,36.7,67.1167,427600,AF,AFG,Balkh,Mazār-e Sharīf
Kunduz,Afghanistan,Asia & Pacific ,36.728,68.8725,259809,AF,AFG,Kunduz,Kunduz
Jalalabad,Afghanistan,Asia & Pacific ,34.4303,70.4528,205423,AF,AFG,Nangarhār,Jalālābād
Lashkar Gah,Afghanistan,Asia & Pacific ,31.5938,64.3716,201546,AF,AFG,Helmand,Lashkar Gāh
Maimanah,Afghanistan,Asia & Pacific ,35.9302,64.7701,199795,AF,AFG,Fāryāb,Maīmanah
Shibirghan,Afghanistan,Asia & Pacific ,36.665,65.752,175599,AF,AFG,Jowzjān,Shibirghān
Khost,Afghanistan,Asia & Pacific ,33.3333,69.9167,160214,AF,AFG,Khōst,Khōst
Ghazni,Afghanistan,Asia & Pacific ,33.5492,68.4233,143379,AF,AFG,Ghaznī,Ghaznī
Pul-e Khumri,Afghanistan,Asia & Pacific ,35.95,68.7,113500,AF,AFG,Baghlān,Pul-e Khumrī
Gardez,Afghanistan,Asia & Pacific ,33.5931,69.2297,103601,AF,AFG,Paktiyā,Gardēz
Taluqan,Afghanistan,Asia & Pacific ,36.7167,69.5167,77000,AF,AFG,Takhār,Tāluqān
Farah,Afghanistan,Asia & Pacific ,32.3436,62.1194,73647,AF,AFG,Farāh,Farāh
Faizabad,Afghanistan,Asia & Pacific ,37.1298,70.5792,64704,AF,AFG,Badakhshān,Faīẕābād
Bamyan,Afghanistan,Asia & Pacific ,34.8167,67.8167,61863,AF,AFG,Bāmyān,Bāmyān
Charikar,Afghanistan,Asia & Pacific ,35.0183,69.1679,53676,AF,AFG,Parwān,Chārīkār
Sar-e Pul,Afghanistan,Asia & Pacific ,36.2214,65.9278,51075,AF,AFG,Sar-e Pul,Sar-e Pul
Zaranj,Afghanistan,Asia & Pacific ,30.96,61.86,49851,AF,AFG,Nīmrōz,Zaranj
Asadabad,Afghanistan,Asia & Pacific ,34.8742,71.1528,48400,AF,AFG,Kunaṟ,Asadābād
Maidan Shahr,Afghanistan,Asia & Pacific ,34.3972,68.8697,35008,AF,AFG,Wardak,Maīdān Shahr
Mehtar Lam,Afghanistan,Asia & Pacific ,34.65,70.1833,17345,AF,AFG,Laghmān,Mehtar Lām
Fayroz Koh,Afghanistan,Asia & Pacific ,34.5225,65.2517,15000,AF,AFG,Ghōr,Fayrōz Kōh
Qalat,Afghanistan,Asia & Pacific ,32.1061,66.9069,12191,AF,AFG,Zābul,Qalāt
Tarin Kot,Afghanistan,Asia & Pacific ,32.6333,65.8667,10000,AF,AFG,Uruzgān,Tarīn Kōṯ
Mahmud-e Raqi,Afghanistan,Asia & Pacific ,35.0167,69.3333,7407,AF,AFG,Kāpīsā,Maḩmūd-e Rāqī
Qal`ah-ye Now,Afghanistan,Asia & Pacific ,34.99,63.12,5340,AF,AFG,Bādghīs,Qal‘ah-ye Now
Aibak,Afghanistan,Asia & Pacific ,36.2534,68.0394,4938,AF,AFG,Samangān,Aībak
Pul-e `Alam,Afghanistan,Asia & Pacific ,33.9953,69.0227,,AF,AFG,Lōgar,Pul-e ‘Alam
Sharan,Afghanistan,Asia & Pacific ,33.1757,68.7304,,AF,AFG,Paktīkā,Sharan
Nili,Afghanistan,Asia & Pacific ,33.7218,66.1302,,AF,AFG,Dāykundī,Nīlī
Bazarak,Afghanistan,Asia & Pacific ,35.3129,69.5152,,AF,AFG,Panjshir,Bāzārak
Parun,Afghanistan,Asia & Pacific ,35.4206,70.9226,,AF,AFG,Nūristān,Pārūn
Balkh,Afghanistan,Asia & Pacific ,36.7581,66.8989,77000,AF,AFG,Balkh,Balkh
Baghlan,Afghanistan,Asia & Pacific ,36.1328,68.7,39228,AF,AFG,Baghlān,Baghlān
Kotah-ye `Ashro,Afghanistan,Asia & Pacific ,34.45,68.8,35008,AF,AFG,Wardak,Kōṯah-ye ‘As̲h̲rō
Khulm,Afghanistan,Asia & Pacific ,36.6833,67.6833,28078,AF,AFG,Balkh,Khulm
Khanabad,Afghanistan,Asia & Pacific ,36.6831,69.1636,26803,AF,AFG,Kunduz,Khānābād
Baraki Barak,Afghanistan,Asia & Pacific ,33.9667,68.9667,22305,AF,AFG,Lōgar,Barakī Barak
Qal`ah-ye Zal,Afghanistan,Asia & Pacific ,37.015,68.4672,18000,AF,AFG,Kunduz,Qal‘ah-ye Zāl
Karukh,Afghanistan,Asia & Pacific ,34.4868,62.5918,17484,AF,AFG,Herāt,Karukh
Zarghun Shahr,Afghanistan,Asia & Pacific ,32.85,68.4167,13737,AF,AFG,Paktīkā,Zarghūn Shahr
Andkhoy,Afghanistan,Asia & Pacific ,36.95,65.1167,13137,AF,AFG,Fāryāb,Andkhōy
Tirana,Albania,Europe ,41.33,19.82,418495,AL,ALB,Tiranë,Tirana
Durres,Albania,Europe ,41.3167,19.45,142432,AL,ALB,Durrës,Durrës
Vlore,Albania,Europe ,40.45,19.4833,130827,AL,ALB,Vlorë,Vlorë
Kamez,Albania,Europe ,41.3833,19.7667,126777,AL,ALB,Tiranë,Kamëz
Fier,Albania,Europe ,40.7167,19.55,120655,AL,ALB,Fier,Fier
Shkoder,Albania,Europe ,42.0667,19.5,112276,AL,ALB,Shkodër,Shkodër
Elbasan,Albania,Europe ,41.1125,20.0822,78703,AL,ALB,Elbasan,Elbasan
Korce,Albania,Europe ,40.6167,20.7667,51152,AL,ALB,Korçë,Korçë
Berat,Albania,Europe ,40.7049,19.9497,36496,AL,ALB,Berat,Berat
Gjirokaster,Albania,Europe ,40.0758,20.1389,25301,AL,ALB,Gjirokastër,Gjirokastër
Lezhe,Albania,Europe ,41.7805,19.6434,15510,AL,ALB,Lezhë,Lezhë
Kukes,Albania,Europe ,42.0758,20.4231,16719,AL,ALB,Kukës,Kukës
Peshkopi,Albania,Europe ,41.6831,20.4289,13251,AL,ALB,Dibër,Peshkopi
Sarande,Albania,Europe ,39.8833,20.0167,41000,AL,ALB,Vlorë,Sarandë
Lushnje,Albania,Europe ,40.9333,19.7,31105,AL,ALB,Fier,Lushnjë
Kavaje,Albania,Europe ,41.1833,19.55,29354,AL,ALB,Tiranë,Kavajë
Pogradec,Albania,Europe ,40.9,20.65,20848,AL,ALB,Korçë,Pogradec
Fushe-Kruje,Albania,Europe ,41.4833,19.7167,18477,AL,ALB,Durrës,Fushë-Krujë
Lac,Albania,Europe ,41.6353,19.7131,17086,AL,ALB,Lezhë,Laç
Sukth,Albania,Europe ,41.3833,19.5333,15966,AL,ALB,Durrës,Sukth
Patos,Albania,Europe ,40.6841,19.6194,15397,AL,ALB,Fier,Patos
Kucove,Albania,Europe ,40.8039,19.9144,12654,AL,ALB,Berat,Kuçovë
Kruje,Albania,Europe ,41.5178,19.7978,11721,AL,ALB,Durrës,Krujë
Burrel,Albania,Europe ,41.6,20,10862,AL,ALB,Dibër,Burrel
Vore,Albania,Europe ,41.3939,19.6544,10901,AL,ALB,Tiranë,Vorë
Gramsh,Albania,Europe ,40.8667,20.1833,8440,AL,ALB,Elbasan,Gramsh
Shijak,Albania,Europe ,41.3456,19.5672,7568,AL,ALB,Durrës,Shijak
Belsh,Albania,Europe ,40.9833,19.8833,8781,AL,ALB,Elbasan,Belsh
Rreshen,Albania,Europe ,41.7667,19.8833,8803,AL,ALB,Lezhë,Rrëshen
Ballsh,Albania,Europe ,40.5991,19.7359,7657,AL,ALB,Fier,Ballsh
Mamurras,Albania,Europe ,41.5775,19.6922,8282,AL,ALB,Lezhë,Mamurras
Divjake,Albania,Europe ,40.9964,19.5327,8445,AL,ALB,Fier,Divjakë
Bulqize,Albania,Europe ,41.5,20.2167,8177,AL,ALB,Dibër,Bulqizë
Shengjin,Albania,Europe ,41.8136,19.5939,8091,AL,ALB,Lezhë,Shëngjin
Vau i Dejes,Albania,Europe ,42,19.6333,8117,AL,ALB,Shkodër,Vau i Dejës
Rrogozhine,Albania,Europe ,41.0761,19.6667,7049,AL,ALB,Tiranë,Rrogozhinë
Peqin,Albania,Europe ,41.05,19.75,6353,AL,ALB,Elbasan,Peqin
Bilisht,Albania,Europe ,40.6275,20.99,7114,AL,ALB,Korçë,Bilisht
Librazhd,Albania,Europe ,41.1833,20.3167,6937,AL,ALB,Elbasan,Librazhd
Cerrik,Albania,Europe ,41.0333,19.9833,6695,AL,ALB,Elbasan,Cërrik
Roskovec,Albania,Europe ,40.7375,19.7022,6657,AL,ALB,Fier,Roskovec
Permet,Albania,Europe ,40.2333,20.35,5945,AL,ALB,Gjirokastër,Përmet
Perrenjas,Albania,Europe ,41.0667,20.55,5847,AL,ALB,Elbasan,Përrenjas
Krume,Albania,Europe ,42.1961,20.4146,6006,AL,ALB,Kukës,Krumë
Delvine,Albania,Europe ,39.9494,20.0958,5754,AL,ALB,Vlorë,Delvinë
Bajram Curri,Albania,Europe ,42.3582,20.076,5340,AL,ALB,Kukës,Bajram Curri
Tepelene,Albania,Europe ,40.3,20.0167,4342,AL,ALB,Gjirokastër,Tepelenë
Erseke,Albania,Europe ,40.3333,20.6833,3746,AL,ALB,Korçë,Ersekë
Corovode,Albania,Europe ,40.5042,20.2272,4051,AL,ALB,Berat,Çorovodë
Puke,Albania,Europe ,42.05,19.9,3607,AL,ALB,Shkodër,Pukë
Algiers,Algeria,Arab States ,36.7764,3.0586,3415811,DZ,DZA,Alger,Algiers
Oran,Algeria,Arab States ,35.6969,-0.6331,852000,DZ,DZA,Oran,Oran
Constantine,Algeria,Arab States ,36.365,6.6147,448374,DZ,DZA,Constantine,Constantine
Blida,Algeria,Arab States ,36.4722,2.8333,331779,DZ,DZA,Blida,Blida
Batna,Algeria,Arab States ,35.55,6.1667,290645,DZ,DZA,Batna,Batna
Setif,Algeria,Arab States ,36.19,5.41,288461,DZ,DZA,Sétif,Sétif
Djelfa,Algeria,Arab States ,34.6667,3.25,265833,DZ,DZA,Djelfa,Djelfa
Annaba,Algeria,Arab States ,36.9,7.7667,257359,DZ,DZA,Annaba,Annaba
Sidi Bel Abbes,Algeria,Arab States ,35.2,-0.6333,212935,DZ,DZA,Sidi Bel Abbès,Sidi Bel Abbès
Biskra,Algeria,Arab States ,34.85,5.7333,204661,DZ,DZA,Biskra,Biskra
Tebessa,Algeria,Arab States ,35.4,8.1167,194461,DZ,DZA,Tébessa,Tébessa
Tiaret,Algeria,Arab States ,35.3667,1.3167,178915,DZ,DZA,Tiaret,Tiaret
El Oued,Algeria,Arab States ,33.3704,6.86,177497,DZ,DZA,El Oued,El Oued
Bejaia,Algeria,Arab States ,36.75,5.0667,176139,DZ,DZA,Bejaïa,Bejaïa
Tlemcen,Algeria,Arab States ,34.8828,-1.3167,173531,DZ,DZA,Tlemcen,Tlemcen
Bordj Bou Arreridj,Algeria,Arab States ,36.0667,4.7667,168346,DZ,DZA,Bordj Bou Arréridj,Bordj Bou Arreridj
Skikda,Algeria,Arab States ,36.8667,6.9,163318,DZ,DZA,Skikda,Skikda
Chlef,Algeria,Arab States ,36.1647,1.3317,155134,DZ,DZA,Chlef,Chlef
M'Sila,Algeria,Arab States ,35.7,4.545,150000,DZ,DZA,M’sila,M’Sila
Jijel,Algeria,Arab States ,36.822,5.766,148000,DZ,DZA,Jijel,Jijel
Mostaganem,Algeria,Arab States ,35.9333,0.0903,145696,DZ,DZA,Mostaganem,Mostaganem
Tizi Ouzou,Algeria,Arab States ,36.8,4.0333,144000,DZ,DZA,Tizi Ouzou,Tizi Ouzou
Saida,Algeria,Arab States ,34.8404,0.14,142213,DZ,DZA,Saïda,Saïda
Touggourt,Algeria,Arab States ,33.1,6.0667,143270,DZ,DZA,Ouargla,Touggourt
Bechar,Algeria,Arab States ,31.6111,-2.23,143382,DZ,DZA,Béchar,Béchar
Medea,Algeria,Arab States ,36.2675,2.75,138355,DZ,DZA,Médéa,Médéa
Souk Ahras,Algeria,Arab States ,36.2904,7.95,134947,DZ,DZA,Souk Ahras,Souk Ahras
Ouargla,Algeria,Arab States ,31.95,5.3167,133024,DZ,DZA,Ouargla,Ouargla
Guelma,Algeria,Arab States ,36.466,7.428,123590,DZ,DZA,Guelma,Guelma
Ghardaia,Algeria,Arab States ,32.49,3.67,125480,DZ,DZA,Ghardaïa,Ghardaïa
Laghouat,Algeria,Arab States ,33.81,2.88,113872,DZ,DZA,Laghouat,Laghouat
Khenchela,Algeria,Arab States ,35.4167,7.1333,108580,DZ,DZA,Khenchela,Khenchela
Mascara,Algeria,Arab States ,35.4,0.1333,108587,DZ,DZA,Mascara,Mascara
Oum el Bouaghi,Algeria,Arab States ,35.8706,7.115,100821,DZ,DZA,Oum el Bouaghi,Oum el Bouaghi
Tamanrasset,Algeria,Arab States ,22.785,5.5228,76000,DZ,DZA,Tamanrasset,Tamanrasset
Tissemsilt,Algeria,Arab States ,35.6072,1.8106,75197,DZ,DZA,Tissemsilt,Tissemsilt
Bouira,Algeria,Arab States ,36.3783,3.8925,68545,DZ,DZA,Bouira,Bouira
El Bayadh,Algeria,Arab States ,33.6904,1.01,67413,DZ,DZA,El Bayadh,El Bayadh
Adrar,Algeria,Arab States ,27.8742,-0.2939,56910,DZ,DZA,Adrar,Adrar
Boumerdes,Algeria,Arab States ,36.7594,3.4728,41685,DZ,DZA,Boumerdes,Boumerdes
El Tarf,Algeria,Arab States ,36.7669,8.3136,25594,DZ,DZA,El Tarf,El Tarf
Tipasa,Algeria,Arab States ,36.5942,2.443,25225,DZ,DZA,Tipaza,Tipasa
Tindouf,Algeria,Arab States ,27.6742,-8.1478,18270,DZ,DZA,Tindouf,Tindouf
Illizi,Algeria,Arab States ,26.4834,8.4666,7957,DZ,DZA,Illizi,Illizi
Relizane,Algeria,Arab States ,35.7373,0.556,,DZ,DZA,Relizane,Relizane
Ain Temouchent,Algeria,Arab States ,35.2975,-1.1404,,DZ,DZA,Aïn Temouchent,Aïn Temouchent
Ain Defla,Algeria,Arab States ,36.2641,1.9679,,DZ,DZA,Aïn Defla,Aïn Defla
Mila,Algeria,Arab States ,36.4503,6.2644,,DZ,DZA,Mila,Mila
Naama,Algeria,Arab States ,33.2667,-0.3167,,DZ,DZA,Naama,Naama
Ain Sefra,Algeria,Arab States ,32.7604,-0.5799,63420,DZ,DZA,Naama,Aïn Sefra
Timimoun,Algeria,Arab States ,29.2365,0.27,49237,DZ,DZA,Adrar,Timimoun
I-n-Salah,Algeria,Arab States ,27.2166,2.4666,49223,DZ,DZA,Tamanrasset,I-n-Salah
Reggane,Algeria,Arab States ,26.7,0.1666,32974,DZ,DZA,Adrar,Reggane
El Golea,Algeria,Arab States ,30.5666,2.8833,32049,DZ,DZA,Ghardaïa,El Golea
Hassi Messaoud,Algeria,Arab States ,31.7023,6.0545,18124,DZ,DZA,Ouargla,Hassi Messaoud
Bordj Mokhtar,Algeria,Arab States ,21.3289,0.9542,16437,DZ,DZA,Adrar,Bordj Mokhtar
Djanet,Algeria,Arab States ,24.555,9.4853,14655,DZ,DZA,Illizi,Djanet
Abadla,Algeria,Arab States ,31.0171,-2.7333,14364,DZ,DZA,Béchar,Abadla
In Guezzam,Algeria,Arab States ,19.5686,5.7722,7045,DZ,DZA,Tamanrasset,In Guezzam
Beni Ounif,Algeria,Arab States ,32.0493,-1.2514,5628,DZ,DZA,Béchar,Beni Ounif
I-n-Amguel,Algeria,Arab States ,23.6939,5.1647,3030,DZ,DZA,Tamanrasset,I-n-Amguel
I-n-Amenas,Algeria,Arab States ,28.0503,9.55,216,DZ,DZA,Illizi,I-n-Amenas
Pago Pago,American Samoa,Asia & Pacific ,-14.274,-170.7046,12576,AS,ASM,,Pago Pago
Andorra la Vella,Andorra,Europe ,42.5,1.5,22151,AD,AND,Andorra la Vella,Andorra la Vella
Escaldes-Engordany,Andorra,Europe ,42.5085,1.5385,,AD,AND,Escaldes-Engordany,Escaldes-Engordany
Encamp,Andorra,Europe ,42.5167,1.5667,,AD,AND,Encamp,Encamp
La Massana,Andorra,Europe ,42.5434,1.5148,,AD,AND,La Massana,La Massana
Sant Julia de Loria,Andorra,Europe ,42.4664,1.4933,,AD,AND,Sant Julià de Lòria,Sant Julià de Lòria
Ordino,Andorra,Europe ,42.555,1.5331,,AD,AND,Ordino,Ordino
Canillo,Andorra,Europe ,42.567,1.5981,,AD,AND,Canillo,Canillo
Luanda,Angola,Africa ,-8.8383,13.2344,8417000,AO,AGO,Luanda,Luanda
Huambo,Angola,Africa ,-12.7667,15.7333,665564,AO,AGO,Huambo,Huambo
Cabinda,Angola,Africa ,-5.55,12.2,550000,AO,AGO,Cabinda,Cabinda
Benguela,Angola,Africa ,-12.55,13.4167,513000,AO,AGO,Benguela,Benguela
Lobito,Angola,Africa ,-12.37,13.5412,207932,AO,AGO,Benguela,Lobito
Mocamedes,Angola,Africa ,-15.1953,12.1508,162000,AO,AGO,Namibe,Moçâmedes
Porto Amboim,Angola,Africa ,-10.7183,13.75,137000,AO,AGO,Kwanza Sul,Porto Amboim
Malanje,Angola,Africa ,-9.54,16.34,125856,AO,AGO,Malanje,Malanje
Cuito,Angola,Africa ,-12.38,16.94,114286,AO,AGO,Bié,Cuito
Uige,Angola,Africa ,-7.62,15.05,60008,AO,AGO,Uíge,Uíge
Mbanza Kongo,Angola,Africa ,-6.2667,14.25,60182,AO,AGO,Zaire,Mbanza Kongo
Saurimo,Angola,Africa ,-9.6596,20.39,41316,AO,AGO,Lunda Sul,Saurimo
Caxito,Angola,Africa ,-8.6467,13.6642,28224,AO,AGO,Bengo,Caxito
Sumbe,Angola,Africa ,-11.2052,13.8417,26000,AO,AGO,Kwanza Sul,Sumbe
Luena,Angola,Africa ,-11.79,19.9,21115,AO,AGO,Moxico,Luena
Menongue,Angola,Africa ,-14.6666,17.7,13030,AO,AGO,Kuando Kubango,Menongue
Dundo,Angola,Africa ,-7.38,20.83,11985,AO,AGO,Lunda Norte,Dundo
Ondjiva,Angola,Africa ,-17.0667,15.7333,10169,AO,AGO,Cunene,Ondjiva
Ndalatando,Angola,Africa ,-9.3,14.9167,8144,AO,AGO,Kwanza Norte,Ndalatando
Lubango,Angola,Africa ,-14.9167,13.5,,AO,AGO,Huíla,Lubango
Tombua,Angola,Africa ,-15.8,11.85,90000,AO,AGO,Namibe,Tômbua
Capenda Camulemba,Angola,Africa ,-9.4196,18.43,80000,AO,AGO,Lunda Norte,Capenda Camulemba
Soio,Angola,Africa ,-6.1296,12.37,67491,AO,AGO,Zaire,Soio
Lucapa,Angola,Africa ,-8.4196,20.74,31041,AO,AGO,Lunda Norte,Lucapa
Mavinga,Angola,Africa ,-15.7895,20.36,30000,AO,AGO,Kuando Kubango,Mavinga
Nzeto,Angola,Africa ,-7.2296,12.86,21059,AO,AGO,Zaire,Nzeto
Camacupa,Angola,Africa ,-12.0196,17.47,19828,AO,AGO,Bié,Camacupa
Luau,Angola,Africa ,-10.7095,22.23,18465,AO,AGO,Moxico,Luau
Ambriz,Angola,Africa ,-7.855,13.125,17000,AO,AGO,Bengo,Ambriz
Camabatela,Angola,Africa ,-8.1896,15.37,12837,AO,AGO,Kwanza Norte,Camabatela
Uacu Cungo,Angola,Africa ,-11.3583,15.1194,12069,AO,AGO,Kwanza Sul,Uacu Cungo
Songo,Angola,Africa ,-7.3496,14.85,10579,AO,AGO,Uíge,Songo
Dondo,Angola,Africa ,-9.6942,14.4228,2353,AO,AGO,Kwanza Norte,Dondo
Xangongo,Angola,Africa ,-16.7467,14.9747,447,AO,AGO,Cunene,Xangongo
Quibala,Angola,Africa ,-10.7296,14.98,8915,AO,AGO,Kwanza Sul,Quibala
Cubal,Angola,Africa ,-13.0396,14.24,4837,AO,AGO,Benguela,Cubal
Muconda,Angola,Africa ,-10.5996,21.32,2324,AO,AGO,Lunda Sul,Muconda
Chibemba,Angola,Africa ,-15.7496,14.08,1502,AO,AGO,Huíla,Chibemba
Chibia,Angola,Africa ,-15.1896,13.69,1411,AO,AGO,Huíla,Chibia
Cangamba,Angola,Africa ,-13.6996,19.86,1307,AO,AGO,Moxico,Cangamba
Cacolo,Angola,Africa ,-10.1496,19.26,984,AO,AGO,Lunda Sul,Cacolo
Calulo,Angola,Africa ,-9.9996,14.9,795,AO,AGO,Kwanza Sul,Calulo
Calenga,Angola,Africa ,-11.3196,16.2,531,AO,AGO,Bié,Calenga
Chitado,Angola,Africa ,-17.3196,13.92,500,AO,AGO,Cunene,Chitado
Cazombo,Angola,Africa ,-11.8896,22.9,298,AO,AGO,Moxico,Cazombo
Quipungo,Angola,Africa ,-14.8295,14.55,186,AO,AGO,Huíla,Quipungo
Luiana,Angola,Africa ,-17.3695,23,150,AO,AGO,Kuando Kubango,Luiana
Cuito Cuanavale,Angola,Africa ,-15.1596,19.17,149,AO,AGO,Kuando Kubango,Cuito Cuanavale
Mucusso,Angola,Africa ,-18.0195,21.43,100,AO,AGO,Kuando Kubango,Mucusso
Saint John's,Antigua And Barbuda,South/Latin America ,17.1211,-61.8447,21926,AG,ATG,Saint John,Saint John’s
Buenos Aires,Argentina,South/Latin America ,-34.5997,-58.3819,16157000,AR,ARG,"Buenos Aires, Ciudad Autónoma de",Buenos Aires
Cordoba,Argentina,South/Latin America ,-31.4167,-64.1833,1329604,AR,ARG,Córdoba,Córdoba
Rosario,Argentina,South/Latin America ,-32.9575,-60.6394,1193605,AR,ARG,Santa Fe,Rosario
San Miguel de Tucuman,Argentina,South/Latin America ,-26.8167,-65.2167,605767,AR,ARG,Tucumán,San Miguel de Tucumán
Mar del Plata,Argentina,South/Latin America ,-38,-57.55,593337,AR,ARG,Buenos Aires,Mar del Plata
Salta,Argentina,South/Latin America ,-24.7883,-65.4106,535303,AR,ARG,Salta,Salta
San Juan,Argentina,South/Latin America ,-31.5375,-68.5364,471389,AR,ARG,San Juan,San Juan
Lanus,Argentina,South/Latin America ,-34.7,-58.4,459263,AR,ARG,Buenos Aires,Lanús
Santa Fe,Argentina,South/Latin America ,-31.6333,-60.7,405683,AR,ARG,Santa Fe,Santa Fe
Corrientes,Argentina,South/Latin America ,-27.4833,-58.8167,352646,AR,ARG,Corrientes,Corrientes
San Salvador de Jujuy,Argentina,South/Latin America ,-24.1856,-65.2994,321789,AR,ARG,Jujuy,San Salvador de Jujuy
Bahia Blanca,Argentina,South/Latin America ,-38.7167,-62.2667,299101,AR,ARG,Buenos Aires,Bahía Blanca
Resistencia,Argentina,South/Latin America ,-27.4514,-58.9867,291720,AR,ARG,Chaco,Resistencia
Posadas,Argentina,South/Latin America ,-27.3667,-55.8969,275988,AR,ARG,Misiones,Posadas
Santiago del Estero,Argentina,South/Latin America ,-27.7844,-64.2669,252192,AR,ARG,Santiago del Estero,Santiago del Estero
Parana,Argentina,South/Latin America ,-31.7444,-60.5175,247863,AR,ARG,Entre Ríos,Paraná
Merlo,Argentina,South/Latin America ,-34.6653,-58.7275,244168,AR,ARG,Buenos Aires,Merlo
Gonzalez Catan,Argentina,South/Latin America ,-34.7708,-58.6464,238067,AR,ARG,Buenos Aires,González Catán
Quilmes,Argentina,South/Latin America ,-34.7167,-58.2667,230810,AR,ARG,Buenos Aires,Quilmes
Neuquen,Argentina,South/Latin America ,-38.9573,-68.0455,231198,AR,ARG,Neuquén,Neuquén
Jose C. Paz,Argentina,South/Latin America ,-34.5167,-58.7667,216637,AR,ARG,Buenos Aires,José C. Paz
Formosa,Argentina,South/Latin America ,-26.1847,-58.1758,222226,AR,ARG,Formosa,Formosa
Isidro Casanova,Argentina,South/Latin America ,-34.7,-58.5833,190696,AR,ARG,Buenos Aires,Isidro Casanova
Godoy Cruz,Argentina,South/Latin America ,-32.9167,-68.8333,191299,AR,ARG,Mendoza,Godoy Cruz
La Plata,Argentina,South/Latin America ,-34.9333,-57.95,186527,AR,ARG,Buenos Aires,La Plata
Berazategui,Argentina,South/Latin America ,-34.7679,-58.2133,180523,AR,ARG,Buenos Aires,Berazategui
La Rioja,Argentina,South/Latin America ,-29.4131,-66.8558,180995,AR,ARG,La Rioja,La Rioja
Comodoro Rivadavia,Argentina,South/Latin America ,-45.8667,-67.5,173266,AR,ARG,Chubut,Comodoro Rivadavia
San Luis,Argentina,South/Latin America ,-33.2994,-66.3392,169947,AR,ARG,San Luis,San Luis
Jose Maria Ezeiza,Argentina,South/Latin America ,-34.8333,-58.5167,160219,AR,ARG,Buenos Aires,José María Ezeiza
San Nicolas de los Arroyos,Argentina,South/Latin America ,-33.3333,-60.2167,160000,AR,ARG,Buenos Aires,San Nicolás de los Arroyos
Catamarca,Argentina,South/Latin America ,-28.4686,-65.7792,159139,AR,ARG,Catamarca,Catamarca
Rafael Castillo,Argentina,South/Latin America ,-34.7167,-58.6167,147965,AR,ARG,Buenos Aires,Rafael Castillo
Florencio Varela,Argentina,South/Latin America ,-34.8167,-58.3833,146704,AR,ARG,Buenos Aires,Florencio Varela
Concordia,Argentina,South/Latin America ,-31.3922,-58.0169,149450,AR,ARG,Entre Ríos,Concordia
San Justo,Argentina,South/Latin America ,-34.6833,-58.55,136604,AR,ARG,Buenos Aires,San Justo
Temperley,Argentina,South/Latin America ,-34.7667,-58.3833,121451,AR,ARG,Buenos Aires,Temperley
Ramos Mejia,Argentina,South/Latin America ,-34.65,-58.5667,120346,AR,ARG,Buenos Aires,Ramos Mejía
San Martin,Argentina,South/Latin America ,-33.0806,-68.4706,117399,AR,ARG,Mendoza,San Martín
Mendoza,Argentina,South/Latin America ,-32.8833,-68.8333,114822,AR,ARG,Mendoza,Mendoza
Tandil,Argentina,South/Latin America ,-37.3167,-59.1333,116917,AR,ARG,Buenos Aires,Tandil
Puerto Madryn,Argentina,South/Latin America ,-42.773,-65.0366,115353,AR,ARG,Chubut,Puerto Madryn
Bernal,Argentina,South/Latin America ,-34.7,-58.2833,109914,AR,ARG,Buenos Aires,Bernal
Castelar,Argentina,South/Latin America ,-34.65,-58.65,107786,AR,ARG,Buenos Aires,Castelar
San Carlos de Bariloche,Argentina,South/Latin America ,-41.15,-71.3,112887,AR,ARG,Río Negro,San Carlos de Bariloche
Esteban Echeverria,Argentina,South/Latin America ,-34.8167,-58.4667,109644,AR,ARG,Buenos Aires,Esteban Echeverría
Tablada,Argentina,South/Latin America ,-34.6833,-58.5333,102542,AR,ARG,Buenos Aires,Tablada
Villa Mercedes,Argentina,South/Latin America ,-33.6667,-65.4667,111391,AR,ARG,San Luis,Villa Mercedes
Gualeguaychu,Argentina,South/Latin America ,-33.0078,-58.5111,109461,AR,ARG,Entre Ríos,Gualeguaychú
San Rafael,Argentina,South/Latin America ,-34.6175,-68.3356,107997,AR,ARG,Mendoza,San Rafael
Moron,Argentina,South/Latin America ,-34.65,-58.6167,99066,AR,ARG,Buenos Aires,Morón
La Banda,Argentina,South/Latin America ,-27.7333,-64.25,106441,AR,ARG,Santiago del Estero,La Banda
Villa Luzuriaga,Argentina,South/Latin America ,-34.6667,-58.5833,94403,AR,ARG,Buenos Aires,Villa Luzuriaga
Caseros,Argentina,South/Latin America ,-34.6167,-58.5333,95785,AR,ARG,Buenos Aires,Caseros
Santa Rosa,Argentina,South/Latin America ,-36.6203,-64.2906,103860,AR,ARG,La Pampa,Santa Rosa
Libertad,Argentina,South/Latin America ,-34.6833,-58.6833,100324,AR,ARG,Buenos Aires,Libertad
Burzaco,Argentina,South/Latin America ,-34.8167,-58.3667,98859,AR,ARG,Buenos Aires,Burzaco
Berisso,Argentina,South/Latin America ,-34.8667,-57.8667,101123,AR,ARG,Buenos Aires,Berisso
Ciudad General Belgrano,Argentina,South/Latin America ,-34.7261,-58.5289,92957,AR,ARG,Buenos Aires,Ciudad General Belgrano
San Francisco Solano,Argentina,South/Latin America ,-34.7667,-58.3167,91322,AR,ARG,Buenos Aires,San Francisco Solano
Rio Gallegos,Argentina,South/Latin America ,-51.6333,-69.2333,95796,AR,ARG,Santa Cruz,Río Gallegos
Monte Chingolo,Argentina,South/Latin America ,-34.7333,-58.35,85060,AR,ARG,Buenos Aires,Monte Chingolo
Remedios de Escalada,Argentina,South/Latin America ,-34.7167,-58.4,81465,AR,ARG,Buenos Aires,Remedios de Escalada
Ezpeleta,Argentina,South/Latin America ,-34.7517,-58.2344,79557,AR,ARG,Buenos Aires,Ezpeleta
Lomas del Mirador,Argentina,South/Latin America ,-34.6667,-58.5297,71479,AR,ARG,Buenos Aires,Lomas del Mirador
Bella Vista,Argentina,South/Latin America ,-34.5333,-58.6667,72000,AR,ARG,Buenos Aires,Bella Vista
Wilde,Argentina,South/Latin America ,-34.7,-58.3167,65881,AR,ARG,Buenos Aires,Wilde
Villa Dominico,Argentina,South/Latin America ,-34.6917,-58.3333,62315,AR,ARG,Buenos Aires,Villa Domínico
Los Polvorines,Argentina,South/Latin America ,-34.5,-58.7,60867,AR,ARG,Buenos Aires,Los Polvorines
Rafael Calzada,Argentina,South/Latin America ,-34.7833,-58.3667,57351,AR,ARG,Buenos Aires,Rafael Calzada
Viedma,Argentina,South/Latin America ,-40.8,-63,59122,AR,ARG,Río Negro,Viedma
Ushuaia,Argentina,South/Latin America ,-54.8072,-68.3044,56956,AR,ARG,"Tierra del Fuego, Antártida e Islas del Atlántico Sur",Ushuaia
Florida,Argentina,South/Latin America ,-34.5167,-58.5,48158,AR,ARG,Buenos Aires,Florida
Longchamps,Argentina,South/Latin America ,-34.8596,-58.387,47622,AR,ARG,Buenos Aires,Longchamps
La Reja,Argentina,South/Latin America ,-34.6394,-58.8283,47839,AR,ARG,Buenos Aires,La Reja
Villa Alsina,Argentina,South/Latin America ,-34.6667,-58.4167,41155,AR,ARG,Buenos Aires,Villa Alsina
San Isidro,Argentina,South/Latin America ,-34.4667,-58.5167,43595,AR,ARG,Buenos Aires,San Isidro
Jose Marmol,Argentina,South/Latin America ,-34.7833,-58.3667,41109,AR,ARG,Buenos Aires,José Mármol
Haedo,Argentina,South/Latin America ,-34.65,-58.6,37745,AR,ARG,Buenos Aires,Haedo
Munro,Argentina,South/Latin America ,-34.5333,-58.5167,35844,AR,ARG,Buenos Aires,Munro
Dock Sur,Argentina,South/Latin America ,-34.6417,-58.3478,35897,AR,ARG,Buenos Aires,Dock Sur
Villa Adelina,Argentina,South/Latin America ,-34.5175,-58.5475,35307,AR,ARG,Buenos Aires,Villa Adelina
Villa Celina,Argentina,South/Latin America ,-34.7006,-58.4825,30000,AR,ARG,"Buenos Aires, Ciudad Autónoma de",Villa Celina
Adrogue,Argentina,South/Latin America ,-34.8,-58.3833,28265,AR,ARG,Buenos Aires,Adrogue
Rawson,Argentina,South/Latin America ,-43.3,-65.1,31787,AR,ARG,Chubut,Rawson
Avellaneda,Argentina,South/Latin America ,-34.6625,-58.3678,24313,AR,ARG,Buenos Aires,Avellaneda
Vicente Lopez,Argentina,South/Latin America ,-34.5333,-58.475,22419,AR,ARG,Buenos Aires,Vicente López
Tapiales,Argentina,South/Latin America ,-34.7058,-58.5047,23586,AR,ARG,Buenos Aires,Tapiales
Don Bosco,Argentina,South/Latin America ,-34.7,-58.2833,20876,AR,ARG,Buenos Aires,Don Bosco
Villa Sarmiento,Argentina,South/Latin America ,-34.6333,-58.5667,17481,AR,ARG,Buenos Aires,Villa Sarmiento
Aldo Bonzi,Argentina,South/Latin America ,-34.7083,-58.5181,18175,AR,ARG,Buenos Aires,Aldo Bonzi
Zarate,Argentina,South/Latin America ,-34.0833,-59.0333,98522,AR,ARG,Buenos Aires,Zárate
Trelew,Argentina,South/Latin America ,-43.2533,-65.3094,93442,AR,ARG,Chubut,Trelew
Rafaela,Argentina,South/Latin America ,-31.2667,-61.4833,92945,AR,ARG,Santa Fe,Rafaela
Pergamino,Argentina,South/Latin America ,-33.8836,-60.5669,87652,AR,ARG,Buenos Aires,Pergamino
Campana,Argentina,South/Latin America ,-34.1667,-58.9167,86860,AR,ARG,Buenos Aires,Campana
Olavarria,Argentina,South/Latin America ,-36.9,-60.3333,86320,AR,ARG,Buenos Aires,Olavarría
Junin,Argentina,South/Latin America ,-34.5939,-60.9464,85007,AR,ARG,Buenos Aires,Junín
Pilar,Argentina,South/Latin America ,-34.4588,-58.9142,81120,AR,ARG,Buenos Aires,Pilar
Presidencia Roque Saenz Pena,Argentina,South/Latin America ,-26.7833,-60.45,81879,AR,ARG,Chaco,Presidencia Roque Sáenz Peña
Lujan,Argentina,South/Latin America ,-34.5796,-59.11,81749,AR,ARG,Buenos Aires,Luján
Gobernador Galvez,Argentina,South/Latin America ,-33.0251,-60.6337,80769,AR,ARG,Santa Fe,Gobernador Gálvez
Necochea,Argentina,South/Latin America ,-38.56,-58.75,80478,AR,ARG,Buenos Aires,Necochea
Villa Maria,Argentina,South/Latin America ,-32.4103,-63.2314,79356,AR,ARG,Córdoba,Villa María
Venado Tuerto,Argentina,South/Latin America ,-33.75,-61.9667,76432,AR,ARG,Santa Fe,Venado Tuerto
San Ramon de la Nueva Oran,Argentina,South/Latin America ,-23.1361,-64.3222,74059,AR,ARG,Salta,San Ramón de la Nueva Orán
Concepcion del Uruguay,Argentina,South/Latin America ,-32.4833,-58.2333,72528,AR,ARG,Entre Ríos,Concepción del Uruguay
Goya,Argentina,South/Latin America ,-29.1333,-59.25,72304,AR,ARG,Corrientes,Goya
Reconquista,Argentina,South/Latin America ,-29.1443,-59.6438,70549,AR,ARG,Santa Fe,Reconquista
Las Heras,Argentina,South/Latin America ,-32.825,-68.8017,66663,AR,ARG,Mendoza,Las Heras
Obera,Argentina,South/Latin America ,-27.4833,-55.1333,66112,AR,ARG,Misiones,Oberá
Villa Carlos Paz,Argentina,South/Latin America ,-31.4,-64.5167,62423,AR,ARG,Córdoba,Villa Carlos Paz
San Francisco,Argentina,South/Latin America ,-31.4356,-62.0714,62000,AR,ARG,Córdoba,San Francisco
Sarandi,Argentina,South/Latin America ,-34.6833,-58.3333,60752,AR,ARG,Buenos Aires,Sarandí
Tartagal,Argentina,South/Latin America ,-22.5,-63.8333,60819,AR,ARG,Salta,Tartagal
Chajari,Argentina,South/Latin America ,-30.7667,-57.9833,60000,AR,ARG,Entre Ríos,Chajarí
San Pedro,Argentina,South/Latin America ,-24.2196,-64.87,58430,AR,ARG,Jujuy,San Pedro
Punta Alta,Argentina,South/Latin America ,-38.88,-62.08,57209,AR,ARG,Buenos Aires,Punta Alta
General Pico,Argentina,South/Latin America ,-35.6667,-63.7333,57029,AR,ARG,La Pampa,General Pico
Azul,Argentina,South/Latin America ,-36.7833,-59.85,55728,AR,ARG,Buenos Aires,Azul
Chivilcoy,Argentina,South/Latin America ,-34.9,-60.0167,54514,AR,ARG,Buenos Aires,Chivilcoy
Guillermo E. Hudson,Argentina,South/Latin America ,-34.7903,-58.1486,52697,AR,ARG,Buenos Aires,Guillermo E. Hudson
Mercedes,Argentina,South/Latin America ,-34.65,-59.4333,52949,AR,ARG,Buenos Aires,Mercedes
Cruz del Eje,Argentina,South/Latin America ,-30.7333,-64.8,52172,AR,ARG,Córdoba,Cruz del Eje
Caleta Olivia,Argentina,South/Latin America ,-46.4333,-67.5333,51733,AR,ARG,Santa Cruz,Caleta Olivia
El Talar de Pacheco,Argentina,South/Latin America ,-34.4719,-58.655,50426,AR,ARG,Buenos Aires,El Talar de Pacheco
Villaguay,Argentina,South/Latin America ,-31.85,-59.0167,49445,AR,ARG,Entre Ríos,Villaguay
Libertador General San Martin,Argentina,South/Latin America ,-23.8,-64.7833,49267,AR,ARG,Jujuy,Libertador General San Martín
Alta Gracia,Argentina,South/Latin America ,-31.6667,-64.4333,48140,AR,ARG,Córdoba,Alta Gracia
San Lorenzo,Argentina,South/Latin America ,-28.12,-58.77,47626,AR,ARG,Corrientes,San Lorenzo
Villa Constitucion,Argentina,South/Latin America ,-33.2333,-60.3333,47374,AR,ARG,Santa Fe,Villa Constitución
Tres Arroyos,Argentina,South/Latin America ,-38.3667,-60.2667,47136,AR,ARG,Buenos Aires,Tres Arroyos
Rio Tercero,Argentina,South/Latin America ,-32.1768,-64.113,46421,AR,ARG,Córdoba,Río Tercero
Pinamar,Argentina,South/Latin America ,-37.1,-56.85,45000,AR,ARG,Buenos Aires,Pinamar
Esperanza,Argentina,South/Latin America ,-31.4167,-60.9333,43300,AR,ARG,Santa Fe,Esperanza
Gualeguay,Argentina,South/Latin America ,-33.15,-59.3167,43009,AR,ARG,Entre Ríos,Gualeguay
Balcarce,Argentina,South/Latin America ,-37.8464,-58.2556,38823,AR,ARG,Buenos Aires,Balcarce
Aristobulo del Valle,Argentina,South/Latin America ,-27.0952,-54.897,38000,AR,ARG,Misiones,Aristóbulo del Valle
Esquel,Argentina,South/Latin America ,-42.9,-71.3167,36687,AR,ARG,"Buenos Aires, Ciudad Autónoma de",Esquel
Nueve de Julio,Argentina,South/Latin America ,-35.45,-60.8833,36494,AR,ARG,Buenos Aires,Nueve de Julio
Cutral-Co,Argentina,South/Latin America ,-38.9333,-69.2333,35465,AR,ARG,Neuquén,Cutral-Có
Casilda,Argentina,South/Latin America ,-33.0442,-61.1681,35058,AR,ARG,Santa Fe,Casilda
Chacabuco,Argentina,South/Latin America ,-34.65,-60.49,34587,AR,ARG,Buenos Aires,Chacabuco
Bell Ville,Argentina,South/Latin America ,-32.6333,-62.6833,33835,AR,ARG,Córdoba,Bell Ville
Chilecito,Argentina,South/Latin America ,-29.1667,-67.5,33724,AR,ARG,La Rioja,Chilecito
Bragado,Argentina,South/Latin America ,-35.1167,-60.5,33222,AR,ARG,Buenos Aires,Bragado
La Calera,Argentina,South/Latin America ,-31.3439,-64.3353,32227,AR,ARG,Córdoba,La Calera
Zapala,Argentina,South/Latin America ,-38.9028,-70.065,32097,AR,ARG,Neuquén,Zapala
Jesus Maria,Argentina,South/Latin America ,-30.9817,-64.0942,31602,AR,ARG,Córdoba,Jesús María
Rio Grande,Argentina,South/Latin America ,-53.7914,-67.699,31095,AR,ARG,"Tierra del Fuego, Antártida e Islas del Atlántico Sur",Río Grande
Mercedes,Argentina,South/Latin America ,-29.2,-58.0833,30649,AR,ARG,Corrientes,Mercedes
Victoria,Argentina,South/Latin America ,-32.6167,-60.1667,30623,AR,ARG,Entre Ríos,Victoria
Villa Angela,Argentina,South/Latin America ,-27.5833,-60.7167,30051,AR,ARG,Chaco,Villa Ángela
Villa Regina,Argentina,South/Latin America ,-39.1,-67.0667,30028,AR,ARG,Río Negro,Villa Regina
Canada de Gomez,Argentina,South/Latin America ,-32.8167,-61.4,29205,AR,ARG,Santa Fe,Cañada de Gómez
Baradero,Argentina,South/Latin America ,-33.8,-59.5167,28537,AR,ARG,Buenos Aires,Baradero
San Martin de los Andes,Argentina,South/Latin America ,-40.1667,-71.35,27956,AR,ARG,Neuquén,San Martín de los Andes
Marcos Juarez,Argentina,South/Latin America ,-32.7,-62.1,27004,AR,ARG,Córdoba,Marcos Juárez
Dolores,Argentina,South/Latin America ,-36.33,-57.69,25190,AR,ARG,Buenos Aires,Dolores
Colon,Argentina,South/Latin America ,-32.2241,-58.1419,24835,AR,ARG,Entre Ríos,Colón
Lincoln,Argentina,South/Latin America ,-34.85,-61.5167,24798,AR,ARG,Buenos Aires,Lincoln
Coronel Suarez,Argentina,South/Latin America ,-37.4547,-61.9334,23621,AR,ARG,Buenos Aires,Coronel Suárez
Veinticinco de Mayo,Argentina,South/Latin America ,-35.4167,-60.1667,23408,AR,ARG,Buenos Aires,Veinticinco de Mayo
Allen,Argentina,South/Latin America ,-38.9772,-67.8272,22859,AR,ARG,Río Negro,Allen
Tunuyan,Argentina,South/Latin America ,-33.5667,-69.0167,22834,AR,ARG,Mendoza,Tunuyán
Cinco Saltos,Argentina,South/Latin America ,-38.8167,-68.0667,22790,AR,ARG,Río Negro,Cinco Saltos
Dean Funes,Argentina,South/Latin America ,-30.4333,-64.35,21518,AR,ARG,Córdoba,Deán Funes
El Calafate,Argentina,South/Latin America ,-50.3395,-72.2649,21132,AR,ARG,Santa Cruz,El Calafate
Chascomus,Argentina,South/Latin America ,-35.575,-58.0089,21054,AR,ARG,Buenos Aires,Chascomús
Pico Truncado,Argentina,South/Latin America ,-46.8,-67.9667,20889,AR,ARG,Santa Cruz,Pico Truncado
Sunchales,Argentina,South/Latin America ,-30.9442,-61.5614,20537,AR,ARG,Santa Fe,Sunchales
Laboulaye,Argentina,South/Latin America ,-34.1267,-63.3911,20534,AR,ARG,Córdoba,Laboulaye
General Martin Miguel de Guemes,Argentina,South/Latin America ,-24.6667,-65.05,19828,AR,ARG,Salta,General Martín Miguel de Güemes
Rio Segundo,Argentina,South/Latin America ,-31.6501,-63.9116,19713,AR,ARG,Córdoba,Río Segundo
Rufino,Argentina,South/Latin America ,-34.2683,-62.7125,18727,AR,ARG,Santa Fe,Rufino
Charata,Argentina,South/Latin America ,-27.2163,-61.2,18297,AR,ARG,Chaco,Charata
Lobos,Argentina,South/Latin America ,-35.1864,-59.0961,18278,AR,ARG,Buenos Aires,Lobos
General Juan Madariaga,Argentina,South/Latin America ,-37.0167,-57.1333,18089,AR,ARG,Buenos Aires,General Juan Madariaga
Las Heras,Argentina,South/Latin America ,-46.55,-68.95,17821,AR,ARG,Santa Cruz,Las Heras
Santa Elena,Argentina,South/Latin America ,-30.95,-59.8,17791,AR,ARG,Entre Ríos,Santa Elena
Catriel,Argentina,South/Latin America ,-37.8778,-67.7917,17584,AR,ARG,Río Negro,Catriel
Veinticinco de Mayo,Argentina,South/Latin America ,-37.8,-67.6833,17430,AR,ARG,La Pampa,Veinticinco de Mayo
Eldorado,Argentina,South/Latin America ,-26.4,-54.6333,17365,AR,ARG,Misiones,Eldorado
La Falda,Argentina,South/Latin America ,-31.0833,-64.5,16335,AR,ARG,Córdoba,La Falda
San Antonio Oeste,Argentina,South/Latin America ,-40.7333,-64.95,16265,AR,ARG,Río Negro,San Antonio Oeste
Ceres,Argentina,South/Latin America ,-29.8833,-61.95,14499,AR,ARG,Santa Fe,Ceres
Puerto Deseado,Argentina,South/Latin America ,-47.75,-65.9167,14183,AR,ARG,Santa Cruz,Puerto Deseado
Anatuya,Argentina,South/Latin America ,-28.4667,-62.8333,14133,AR,ARG,Santiago del Estero,Añatuya
Mar de Ajo,Argentina,South/Latin America ,-36.7162,-56.6766,13610,AR,ARG,Buenos Aires,Mar de Ajó
La Quiaca,Argentina,South/Latin America ,-22.1056,-65.6,13761,AR,ARG,Jujuy,La Quiaca
Frias,Argentina,South/Latin America ,-28.6496,-65.15,13594,AR,ARG,Santiago del Estero,Frías
Joaquin V. Gonzalez,Argentina,South/Latin America ,-25.0833,-64.1834,13376,AR,ARG,Salta,Joaquín V. González
Malargue,Argentina,South/Latin America ,-35.4745,-69.5853,11847,AR,ARG,Mendoza,Malargüe
Cafayate,Argentina,South/Latin America ,-26.07,-65.98,11785,AR,ARG,Salta,Cafayate
Rio Colorado,Argentina,South/Latin America ,-38.9908,-64.0958,11733,AR,ARG,La Pampa,Río Colorado
Cerrillos,Argentina,South/Latin America ,-24.8996,-65.4833,11498,AR,ARG,Salta,Cerrillos
Coronel Dorrego,Argentina,South/Latin America ,-38.7187,-61.2873,11510,AR,ARG,Buenos Aires,Coronel Dorrego
Monte Quemado,Argentina,South/Latin America ,-25.7996,-62.8666,11387,AR,ARG,Santiago del Estero,Monte Quemado
Humahuaca,Argentina,South/Latin America ,-23.2054,-65.3505,11369,AR,ARG,Jujuy,Humahuaca
Belen,Argentina,South/Latin America ,-27.6496,-67.0333,11359,AR,ARG,Catamarca,Belén
Capilla del Monte,Argentina,South/Latin America ,-30.85,-64.5167,11181,AR,ARG,Córdoba,Capilla del Monte
Benito Juarez,Argentina,South/Latin America ,-37.6655,-59.8,10609,AR,ARG,Buenos Aires,Benito Juárez
Frontera,Argentina,South/Latin America ,-31.4278,-62.0619,10520,AR,ARG,Córdoba,Frontera
Choele Choel,Argentina,South/Latin America ,-39.2858,-65.6542,10146,AR,ARG,Río Negro,Choele Choel
Vera,Argentina,South/Latin America ,-29.4662,-60.2166,9979,AR,ARG,Santa Fe,Vera
San Justo,Argentina,South/Latin America ,-30.7829,-60.5833,9607,AR,ARG,Santa Fe,San Justo
Castelli,Argentina,South/Latin America ,-25.95,-60.6167,9421,AR,ARG,Chaco,Castelli
Chamical,Argentina,South/Latin America ,-30.3496,-66.3167,8989,AR,ARG,La Rioja,Chamical
Yacimiento Rio Turbio,Argentina,South/Latin America ,-51.5333,-72.3,8814,AR,ARG,Santa Cruz,Yacimiento Río Turbio
Jesus Nazareno,Argentina,South/Latin America ,-32.9111,-68.79,6875,AR,ARG,Mendoza,Jesús Nazareno
Chos Malal,Argentina,South/Latin America ,-37.383,-70.2666,8556,AR,ARG,Neuquén,Chos Malal
Mina Clavero,Argentina,South/Latin America ,-31.7239,-65.005,8487,AR,ARG,Córdoba,Mina Clavero
Laprida,Argentina,South/Latin America ,-37.5333,-60.8167,8178,AR,ARG,Buenos Aires,Laprida
Las Lomitas,Argentina,South/Latin America ,-24.7072,-60.5944,7683,AR,ARG,Formosa,Las Lomitas
Carhue,Argentina,South/Latin America ,-37.1829,-62.7333,7190,AR,ARG,Buenos Aires,Carhué
Rinconada,Argentina,South/Latin America ,-22.4403,-66.1672,6692,AR,ARG,Jujuy,Rinconada
Ingeniero Guillermo N. Juarez,Argentina,South/Latin America ,-23.9,-61.85,6453,AR,ARG,Formosa,Ingeniero Guillermo N. Juárez
Ingeniero Jacobacci,Argentina,South/Latin America ,-41.3,-69.5833,6261,AR,ARG,Río Negro,Ingeniero Jacobacci
Chepes,Argentina,South/Latin America ,-31.35,-66.6,6020,AR,ARG,La Rioja,Chepes
San Antonio de los Cobres,Argentina,South/Latin America ,-24.2256,-66.3192,5482,AR,ARG,Salta,San Antonio de los Cobres
Sarmiento,Argentina,South/Latin America ,-45.6,-69.0833,5185,AR,ARG,Chubut,Sarmiento
Perito Moreno,Argentina,South/Latin America ,-46.59,-70.9297,4617,AR,ARG,Santa Cruz,Perito Moreno
Abra Pampa,Argentina,South/Latin America ,-22.7167,-65.7,4480,AR,ARG,Jujuy,Abra Pampa
Victorica,Argentina,South/Latin America ,-36.2163,-65.45,4458,AR,ARG,La Pampa,Victorica
La Paz,Argentina,South/Latin America ,-33.4661,-67.55,4400,AR,ARG,Mendoza,La Paz
Comandante Fontana,Argentina,South/Latin America ,-25.3333,-59.6833,4277,AR,ARG,Formosa,Comandante Fontana
General Conesa,Argentina,South/Latin America ,-40.1,-64.4333,2958,AR,ARG,Río Negro,General Conesa
Pampa del Infierno,Argentina,South/Latin America ,-26.5167,-61.1667,2921,AR,ARG,Chaco,Pampa del Infierno
Chumbicha,Argentina,South/Latin America ,-28.8666,-66.2333,2572,AR,ARG,Catamarca,Chumbicha
Gobernador Gregores,Argentina,South/Latin America ,-48.7666,-70.25,2519,AR,ARG,Santa Cruz,Gobernador Gregores
San Julian,Argentina,South/Latin America ,-49.3,-67.7167,2347,AR,ARG,Santa Cruz,San Julián
Trancas,Argentina,South/Latin America ,-26.2167,-65.2833,1599,AR,ARG,Tucumán,Trancas
Alto Rio Senguer,Argentina,South/Latin America ,-45.0419,-70.8234,1570,AR,ARG,Chubut,Alto Río Senguer
Sierra Colorada,Argentina,South/Latin America ,-40.5829,-67.8,1522,AR,ARG,Río Negro,Sierra Colorada
Las Lajas,Argentina,South/Latin America ,-38.5163,-70.3666,1218,AR,ARG,Neuquén,Las Lajas
Susques,Argentina,South/Latin America ,-23.4006,-66.3672,1093,AR,ARG,Jujuy,Susques
Rodeo,Argentina,South/Latin America ,-30.2156,-69.14,701,AR,ARG,San Juan,Rodeo
Gastre,Argentina,South/Latin America ,-42.2667,-69.2167,602,AR,ARG,Chubut,Gastre
Tinogasta,Argentina,South/Latin America ,-28.0666,-67.5666,587,AR,ARG,Catamarca,Tinogasta
Telsen,Argentina,South/Latin America ,-42.3833,-66.95,544,AR,ARG,Chubut,Telsen
Rio Cuarto,Argentina,South/Latin America ,-33.123,-64.3478,158.298,AR,ARG,Córdoba,Río Cuarto
Pedro Luro,Argentina,South/Latin America ,-39.5,-62.6833,9494,AR,ARG,Buenos Aires,Pedro Luro
General Levalle,Argentina,South/Latin America ,-34.0167,-63.9167,5697,AR,ARG,Córdoba,General Levalle
Veintiocho de Noviembre,Argentina,South/Latin America ,-51.65,-72.3,5300,AR,ARG,Santa Cruz,Veintiocho de Noviembre
El Maiten,Argentina,South/Latin America ,-42.05,-71.1666,4269,AR,ARG,"Buenos Aires, Ciudad Autónoma de",El Maitén
Darregueira,Argentina,South/Latin America ,-37.6996,-63.1666,3412,AR,ARG,Buenos Aires,Darregueira
Villalonga,Argentina,South/Latin America ,-39.8829,-62.5833,2838,AR,ARG,Buenos Aires,Villalonga
Uspallata,Argentina,South/Latin America ,-32.5931,-69.346,2390,AR,ARG,Mendoza,Uspallata
Rio Mayo,Argentina,South/Latin America ,-45.6834,-70.2666,1825,AR,ARG,Chubut,Río Mayo
Villa Rumipal,Argentina,South/Latin America ,-32.1833,-64.4833,1269,AR,ARG,Córdoba,Villa Rumipal
Los Blancos,Argentina,South/Latin America ,-23.5996,-62.6,1145,AR,ARG,Salta,Los Blancos
Comallo,Argentina,South/Latin America ,-41.0333,-70.2666,741,AR,ARG,Río Negro,Comallo
Comandante Luis Piedra Buena,Argentina,South/Latin America ,-49.9745,-68.9035,410,AR,ARG,Santa Cruz,Comandante Luis Piedra Buena
Yerevan,Armenia,Europe ,40.1814,44.5144,1075800,AM,ARM,Yerevan,Yerevan
Gyumri,Armenia,Europe ,40.7833,43.8333,121976,AM,ARM,Shirak,Gyumri
Vanadzor,Armenia,Europe ,40.8128,44.4883,90525,AM,ARM,Lorri,Vanadzor
Kapan,Armenia,Europe ,39.2011,46.415,43190,AM,ARM,Syunik’,Kapan
Armavir,Armenia,Europe ,40.15,44.04,28800,AM,ARM,Armavir,Armavir
Artashat,Armenia,Europe ,39.9539,44.5506,25400,AM,ARM,Ararat,Artashat
Ashtarak,Armenia,Europe ,40.3,44.4,21600,AM,ARM,Aragatsotn,Ashtarak
Gavarr,Armenia,Europe ,40.3667,45.1333,8751,AM,ARM,Geghark’unik’,Gavarr
Yeghegnadzor,Armenia,Europe ,39.7667,45.35,8200,AM,ARM,Vayots’ Dzor,Yeghegnadzor
Hrazdan,Armenia,Europe ,40.5,44.7667,,AM,ARM,Kotayk’,Hrazdan
Ijevan,Armenia,Europe ,40.8788,45.1485,,AM,ARM,Tavush,Ijevan
Ejmiatsin,Armenia,Europe ,40.1728,44.2925,57500,AM,ARM,Armavir,Ejmiatsin
Abovyan,Armenia,Europe ,40.2739,44.6256,44400,AM,ARM,Kotayk’,Abovyan
Ch'arents'avan,Armenia,Europe ,40.4097,44.6431,25039,AM,ARM,Kotayk’,Ch’arents’avan
Step'anavan,Armenia,Europe ,41.0075,44.3867,23782,AM,ARM,Lorri,Step’anavan
Goris,Armenia,Europe ,39.5167,46.3333,20591,AM,ARM,Syunik’,Goris
Dilijan,Armenia,Europe ,40.7408,44.8631,16600,AM,ARM,Tavush,Dilijan
Spitak,Armenia,Europe ,40.8372,44.2675,15000,AM,ARM,Lorri,Spitak
Sisian,Armenia,Europe ,39.5208,46.0322,14894,AM,ARM,Syunik’,Sisian
Alaverdi,Armenia,Europe ,41.095,44.6558,13000,AM,ARM,Lorri,Alaverdi
Vardenis,Armenia,Europe ,40.18,45.72,12363,AM,ARM,Geghark’unik’,Vardenis
Martuni,Armenia,Europe ,40.14,45.3064,11987,AM,ARM,Geghark’unik’,Martuni
Yeghvard,Armenia,Europe ,40.3167,44.4833,10656,AM,ARM,Kotayk’,Yeghvard
Nor Hachn,Armenia,Europe ,40.3,44.58,10198,AM,ARM,Kotayk’,Nor Hachn
Tashir,Armenia,Europe ,41.1144,44.2906,10090,AM,ARM,Lorri,Tashir
Berd,Armenia,Europe ,40.8808,45.3917,9864,AM,ARM,Tavush,Berd
Byureghavan,Armenia,Europe ,40.3147,44.5936,8500,AM,ARM,Kotayk’,Byureghavan
K'ajaran,Armenia,Europe ,39.1511,46.16,7163,AM,ARM,Syunik’,K’ajaran
Chambarak,Armenia,Europe ,40.5931,45.3572,5850,AM,ARM,Geghark’unik’,Chambarak
Noyemberyan,Armenia,Europe ,41.1725,44.9936,5310,AM,ARM,Tavush,Noyemberyan
Oranjestad,Aruba,South/Latin America ,12.5186,-70.0358,34980,AW,ABW,,Oranjestad
Sydney,Australia,Asia & Pacific ,-33.865,151.2094,5312163,AU,AUS,New South Wales,Sydney
Melbourne,Australia,Asia & Pacific ,-37.8136,144.9631,5078193,AU,AUS,Victoria,Melbourne
Brisbane,Australia,Asia & Pacific ,-27.4678,153.0281,2514184,AU,AUS,Queensland,Brisbane
Perth,Australia,Asia & Pacific ,-31.9522,115.8589,2059484,AU,AUS,Western Australia,Perth
Adelaide,Australia,Asia & Pacific ,-34.9289,138.6011,1345777,AU,AUS,South Australia,Adelaide
Canberra,Australia,Asia & Pacific ,-35.2931,149.1269,426704,AU,AUS,Australian Capital Territory,Canberra
Gold Coast,Australia,Asia & Pacific ,-28.0167,153.4,679127,AU,AUS,Queensland,Gold Coast
Newcastle,Australia,Asia & Pacific ,-32.9167,151.75,322278,AU,AUS,New South Wales,Newcastle
Wollongong,Australia,Asia & Pacific ,-34.4331,150.8831,302739,AU,AUS,New South Wales,Wollongong
Geelong,Australia,Asia & Pacific ,-38.15,144.35,263280,AU,AUS,Victoria,Geelong
Hobart,Australia,Asia & Pacific ,-42.8806,147.325,240342,AU,AUS,Tasmania,Hobart
Townsville,Australia,Asia & Pacific ,-19.2564,146.8183,180820,AU,AUS,Queensland,Townsville
Ipswich,Australia,Asia & Pacific ,-27.6167,152.7667,163000,AU,AUS,Queensland,Ipswich
Cairns,Australia,Asia & Pacific ,-16.9303,145.7703,152729,AU,AUS,Queensland,Cairns
Darwin,Australia,Asia & Pacific ,-12.4381,130.8411,136828,AU,AUS,Northern Territory,Darwin
Toowoomba,Australia,Asia & Pacific ,-27.5667,151.95,136861,AU,AUS,Queensland,Toowoomba
Ballarat,Australia,Asia & Pacific ,-37.55,143.85,105471,AU,AUS,Victoria,Ballarat
Caloundra,Australia,Asia & Pacific ,-26.7986,153.1289,41293,AU,AUS,Queensland,Caloundra
Campbelltown,Australia,Asia & Pacific ,-34.0733,150.8261,12566,AU,AUS,New South Wales,Campbelltown
Leopold,Australia,Asia & Pacific ,-38.1892,144.4644,12814,AU,AUS,Victoria,Leopold
Concord,Australia,Asia & Pacific ,-33.8444,151.0903,5914,AU,AUS,New South Wales,Concord
Corinda,Australia,Asia & Pacific ,-27.4833,153.1,11019,AU,AUS,Queensland,Corinda
Wentworthville,Australia,Asia & Pacific ,-33.8233,150.9678,6197,AU,AUS,New South Wales,Wentworthville
Bendigo,Australia,Asia & Pacific ,-36.75,144.2667,99122,AU,AUS,Victoria,Bendigo
Launceston,Australia,Asia & Pacific ,-41.4419,147.145,87328,AU,AUS,Tasmania,Launceston
Mackay,Australia,Asia & Pacific ,-21.1411,149.1861,80148,AU,AUS,Queensland,Mackay
Rockhampton,Australia,Asia & Pacific ,-23.375,150.5117,78592,AU,AUS,Queensland,Rockhampton
Maitland,Australia,Asia & Pacific ,-32.7167,151.55,78015,AU,AUS,New South Wales,Maitland
Bunbury,Australia,Asia & Pacific ,-33.3333,115.6333,74363,AU,AUS,Western Australia,Bunbury
Coffs Harbour,Australia,Asia & Pacific ,-30.3022,153.1189,71822,AU,AUS,New South Wales,Coffs Harbour
Bundaberg,Australia,Asia & Pacific ,-24.85,152.35,70921,AU,AUS,Queensland,Bundaberg
Wagga Wagga,Australia,Asia & Pacific ,-35.1189,147.3689,56442,AU,AUS,New South Wales,Wagga Wagga
Hervey Bay,Australia,Asia & Pacific ,-25.2853,152.8728,54674,AU,AUS,Queensland,Hervey Bay
Shepparton,Australia,Asia & Pacific ,-36.3833,145.4,51631,AU,AUS,Victoria,Shepparton
Albury,Australia,Asia & Pacific ,-36.0806,146.9158,47974,AU,AUS,New South Wales,Albury
Port Macquarie,Australia,Asia & Pacific ,-31.4333,152.9,47973,AU,AUS,New South Wales,Port Macquarie
Pakenham,Australia,Asia & Pacific ,-38.0712,145.4878,46421,AU,AUS,Victoria,Pakenham
Tamworth,Australia,Asia & Pacific ,-31.0833,150.9167,42872,AU,AUS,New South Wales,Tamworth
Orange,Australia,Asia & Pacific ,-33.2833,149.1,40493,AU,AUS,New South Wales,Orange
Dubbo,Australia,Asia & Pacific ,-32.2569,148.6011,38392,AU,AUS,New South Wales,Dubbo
Bathurst,Australia,Asia & Pacific ,-33.42,149.5778,36801,AU,AUS,New South Wales,Bathurst
Geraldton,Australia,Asia & Pacific ,-28.7744,114.6089,37648,AU,AUS,Western Australia,Geraldton
Sunbury,Australia,Asia & Pacific ,-37.5811,144.7139,36084,AU,AUS,Victoria,Sunbury
Nowra,Australia,Asia & Pacific ,-34.8833,150.6,37420,AU,AUS,New South Wales,Nowra
Frankston,Australia,Asia & Pacific ,-38.158,145.135,36097,AU,AUS,Victoria,Frankston
Warrnambool,Australia,Asia & Pacific ,-38.3833,142.4833,35214,AU,AUS,Victoria,Warrnambool
Queanbeyan,Australia,Asia & Pacific ,-35.3533,149.2342,36348,AU,AUS,New South Wales,Queanbeyan
Wodonga,Australia,Asia & Pacific ,-36.1214,146.8881,35130,AU,AUS,Victoria,Wodonga
Albany,Australia,Asia & Pacific ,-35.0228,117.8814,34205,AU,AUS,Western Australia,Albany
Gladstone,Australia,Asia & Pacific ,-23.8489,151.2625,33418,AU,AUS,Queensland,Gladstone
Mildura,Australia,Asia & Pacific ,-34.1889,142.1583,32738,AU,AUS,Victoria,Mildura
Southport,Australia,Asia & Pacific ,-27.9667,153.4,31908,AU,AUS,Queensland,Southport
Dandenong,Australia,Asia & Pacific ,-37.981,145.215,29906,AU,AUS,Victoria,Dandenong
Mount Gambier,Australia,Asia & Pacific ,-37.8294,140.7828,29639,AU,AUS,South Australia,Mount Gambier
Kalgoorlie,Australia,Asia & Pacific ,-30.7489,121.4658,29849,AU,AUS,Western Australia,Kalgoorlie
Lismore,Australia,Asia & Pacific ,-28.8167,153.2833,28720,AU,AUS,New South Wales,Lismore
Quakers Hill,Australia,Asia & Pacific ,-33.7344,150.8789,27080,AU,AUS,New South Wales,Quakers Hill
Ballina,Australia,Asia & Pacific ,-28.8333,153.5333,26381,AU,AUS,New South Wales,Ballina
Taree,Australia,Asia & Pacific ,-31.9,152.45,26381,AU,AUS,New South Wales,Taree
Gawler,Australia,Asia & Pacific ,-34.5981,138.745,26472,AU,AUS,South Australia,Gawler
Maryborough,Australia,Asia & Pacific ,-25.5375,152.7019,27282,AU,AUS,Queensland,Maryborough
Caboolture,Australia,Asia & Pacific ,-27.0667,152.967,26433,AU,AUS,Queensland,Caboolture
Traralgon,Australia,Asia & Pacific ,-38.1958,146.5403,25485,AU,AUS,Victoria,Traralgon
Armidale,Australia,Asia & Pacific ,-30.5,151.65,24504,AU,AUS,New South Wales,Armidale
Busselton,Australia,Asia & Pacific ,-33.6478,115.3458,25329,AU,AUS,Western Australia,Busselton
Goulburn,Australia,Asia & Pacific ,-34.7547,149.6186,23835,AU,AUS,New South Wales,Goulburn
Alice Springs,Australia,Asia & Pacific ,-23.7,133.8667,23726,AU,AUS,Northern Territory,Alice Springs
Cessnock,Australia,Asia & Pacific ,-32.8342,151.3555,21725,AU,AUS,New South Wales,Cessnock
Devonport,Australia,Asia & Pacific ,-41.1806,146.3464,23046,AU,AUS,Tasmania,Devonport
Whyalla,Australia,Asia & Pacific ,-33.0333,137.5667,21742,AU,AUS,South Australia,Whyalla
Bacchus Marsh,Australia,Asia & Pacific ,-37.675,144.4389,22223,AU,AUS,Victoria,Bacchus Marsh
Gympie,Australia,Asia & Pacific ,-26.19,152.6655,21599,AU,AUS,Queensland,Gympie
Griffith,Australia,Asia & Pacific ,-34.29,146.04,20251,AU,AUS,New South Wales,Griffith
Grafton,Australia,Asia & Pacific ,-29.6833,152.9333,19078,AU,AUS,New South Wales,Grafton
Kwinana,Australia,Asia & Pacific ,-32.2394,115.7702,20086,AU,AUS,Western Australia,Kwinana
Burnie,Australia,Asia & Pacific ,-41.0636,145.8753,19385,AU,AUS,Tasmania,Burnie
Yeppoon,Australia,Asia & Pacific ,-23.1333,150.7333,19003,AU,AUS,Queensland,Yeppoon
Wangaratta,Australia,Asia & Pacific ,-36.3583,146.3125,19318,AU,AUS,Victoria,Wangaratta
Mount Eliza,Australia,Asia & Pacific ,-38.189,145.092,17888,AU,AUS,Victoria,Mount Eliza
Murray Bridge,Australia,Asia & Pacific ,-35.117,139.267,18779,AU,AUS,South Australia,Murray Bridge
Narangba,Australia,Asia & Pacific ,-27.2015,152.9655,18573,AU,AUS,Queensland,Narangba
Mount Isa,Australia,Asia & Pacific ,-20.7333,139.5,18588,AU,AUS,Queensland,Mount Isa
Broken Hill,Australia,Asia & Pacific ,-31.9567,141.4678,17734,AU,AUS,New South Wales,Broken Hill
Banora Point,Australia,Asia & Pacific ,-28.2225,153.5386,16167,AU,AUS,New South Wales,Banora Point
Nerang,Australia,Asia & Pacific ,-27.9956,153.322,16864,AU,AUS,Queensland,Nerang
Lara,Australia,Asia & Pacific ,-38.0167,144.4167,16355,AU,AUS,Victoria,Lara
Horsham,Australia,Asia & Pacific ,-36.7167,142.2,16514,AU,AUS,Victoria,Horsham
Mount Barker,Australia,Asia & Pacific ,-35.0667,138.85,16629,AU,AUS,South Australia,Mount Barker
Port Lincoln,Australia,Asia & Pacific ,-34.7322,135.8586,16326,AU,AUS,South Australia,Port Lincoln
Karratha,Australia,Asia & Pacific ,-20.7364,116.8464,16708,AU,AUS,Western Australia,Karratha
Singleton,Australia,Asia & Pacific ,-32.5667,151.1697,16346,AU,AUS,New South Wales,Singleton
Warwick,Australia,Asia & Pacific ,-28.2152,152.0352,15380,AU,AUS,Queensland,Warwick
Echuca,Australia,Asia & Pacific ,-36.1333,144.75,14934,AU,AUS,Victoria,Echuca
Ulladulla,Australia,Asia & Pacific ,-35.3486,150.4678,15278,AU,AUS,New South Wales,Ulladulla
Kempsey,Australia,Asia & Pacific ,-31.0833,152.8333,15309,AU,AUS,New South Wales,Kempsey
Ulverstone,Australia,Asia & Pacific ,-41.1667,146.1667,14109,AU,AUS,Tasmania,Ulverstone
Barwon Heads,Australia,Asia & Pacific ,-38.25,144.5167,14165,AU,AUS,Victoria,Barwon Heads
Australind,Australia,Asia & Pacific ,-33.2792,115.715,14539,AU,AUS,Western Australia,Australind
Sale,Australia,Asia & Pacific ,-38.1,147.0667,15135,AU,AUS,Victoria,Sale
Rochedale,Australia,Asia & Pacific ,-27.5952,153.1233,15317,AU,AUS,Queensland,Rochedale
Port Pirie,Australia,Asia & Pacific ,-33.1858,138.0169,14188,AU,AUS,South Australia,Port Pirie
Morwell,Australia,Asia & Pacific ,-38.2333,146.4,14026,AU,AUS,Victoria,Morwell
Warragul,Australia,Asia & Pacific ,-38.15,145.9333,14276,AU,AUS,Victoria,Warragul
Broome,Australia,Asia & Pacific ,-17.9619,122.2361,14445,AU,AUS,Western Australia,Broome
Port Augusta,Australia,Asia & Pacific ,-32.4925,137.7658,13799,AU,AUS,South Australia,Port Augusta
Penrith,Australia,Asia & Pacific ,-33.7511,150.6942,13295,AU,AUS,New South Wales,Penrith
Forster,Australia,Asia & Pacific ,-32.1806,152.5117,13740,AU,AUS,New South Wales,Forster
Goonellabah,Australia,Asia & Pacific ,-28.815,153.3178,12900,AU,AUS,New South Wales,Goonellabah
Port Hedland,Australia,Asia & Pacific ,-20.31,118.6011,14320,AU,AUS,Western Australia,Port Hedland
Torquay,Australia,Asia & Pacific ,-38.3333,144.3167,13258,AU,AUS,Victoria,Torquay
Emerald,Australia,Asia & Pacific ,-23.5167,148.15,14119,AU,AUS,Queensland,Emerald
Gisborne,Australia,Asia & Pacific ,-37.49,144.5889,13963,AU,AUS,Victoria,Gisborne
Lithgow,Australia,Asia & Pacific ,-33.4833,150.15,12973,AU,AUS,New South Wales,Lithgow
Rutherford,Australia,Asia & Pacific ,-32.715,151.5317,11884,AU,AUS,New South Wales,Rutherford
Bowral,Australia,Asia & Pacific ,-34.4792,150.4181,12949,AU,AUS,New South Wales,Bowral
Jimboomba,Australia,Asia & Pacific ,-27.8333,153.0333,13201,AU,AUS,Queensland,Jimboomba
Colac,Australia,Asia & Pacific ,-38.3403,143.5847,12547,AU,AUS,Victoria,Colac
Dalby,Australia,Asia & Pacific ,-27.1833,151.2667,12719,AU,AUS,Queensland,Dalby
Raymond Terrace,Australia,Asia & Pacific ,-32.7615,151.7441,12820,AU,AUS,New South Wales,Raymond Terrace
Esperance,Australia,Asia & Pacific ,-33.8611,121.8919,12145,AU,AUS,Western Australia,Esperance
Muswellbrook,Australia,Asia & Pacific ,-32.2654,150.8885,12364,AU,AUS,New South Wales,Muswellbrook
Nelson Bay,Australia,Asia & Pacific ,-32.715,152.1511,11820,AU,AUS,New South Wales,Nelson Bay
Inverell,Australia,Asia & Pacific ,-29.7817,151.1178,11660,AU,AUS,New South Wales,Inverell
Parkes,Australia,Asia & Pacific ,-33.095,148.2628,11408,AU,AUS,New South Wales,Parkes
Drouin,Australia,Asia & Pacific ,-38.1333,145.85,11887,AU,AUS,Victoria,Drouin
Swan Hill,Australia,Asia & Pacific ,-35.3333,143.55,11103,AU,AUS,Victoria,Swan Hill
Nambour,Australia,Asia & Pacific ,-26.6269,152.9592,11187,AU,AUS,Queensland,Nambour
Somerville,Australia,Asia & Pacific ,-38.226,145.177,11336,AU,AUS,Victoria,Somerville
Kingston,Australia,Asia & Pacific ,-42.9769,147.3083,10409,AU,AUS,Tasmania,Kingston
Casino,Australia,Asia & Pacific ,-28.8483,153.0511,10914,AU,AUS,New South Wales,Casino
Mudgee,Australia,Asia & Pacific ,-32.6125,149.5872,10923,AU,AUS,New South Wales,Mudgee
Mareeba,Australia,Asia & Pacific ,-16.9833,145.4167,11079,AU,AUS,Queensland,Mareeba
Batemans Bay,Australia,Asia & Pacific ,-35.7081,150.1744,11294,AU,AUS,New South Wales,Batemans Bay
Gracemere,Australia,Asia & Pacific ,-23.4333,150.45,11315,AU,AUS,Queensland,Gracemere
Samford,Australia,Asia & Pacific ,-27.3667,152.8833,10931,AU,AUS,Queensland,Samford
Portland,Australia,Asia & Pacific ,-38.3333,141.6,10900,AU,AUS,Victoria,Portland
Young,Australia,Asia & Pacific ,-34.3,148.3,10295,AU,AUS,New South Wales,Young
Kingaroy,Australia,Asia & Pacific ,-26.5333,151.8333,10398,AU,AUS,Queensland,Kingaroy
Kangaroo Flat,Australia,Asia & Pacific ,-36.8,144.25,10394,AU,AUS,Victoria,Kangaroo Flat
Mount Evelyn,Australia,Asia & Pacific ,-37.7833,145.3833,9702,AU,AUS,Victoria,Mount Evelyn
Bentley,Australia,Asia & Pacific ,-32.001,115.924,8782,AU,AUS,Western Australia,Bentley
Cowra,Australia,Asia & Pacific ,-33.8183,148.6578,10063,AU,AUS,New South Wales,Cowra
Hamilton,Australia,Asia & Pacific ,-37.7333,142.0167,9974,AU,AUS,Victoria,Hamilton
Bowen,Australia,Asia & Pacific ,-20.0167,148.2333,10377,AU,AUS,Queensland,Bowen
Andergrove,Australia,Asia & Pacific ,-21.0931,149.186,9419,AU,AUS,Queensland,Andergrove
Moree,Australia,Asia & Pacific ,-29.465,149.8344,9311,AU,AUS,New South Wales,Moree
Gunnedah,Australia,Asia & Pacific ,-30.9667,150.25,9726,AU,AUS,New South Wales,Gunnedah
Leeton,Australia,Asia & Pacific ,-34.5483,146.4011,8623,AU,AUS,New South Wales,Leeton
Mittagong,Australia,Asia & Pacific ,-34.45,150.45,8999,AU,AUS,New South Wales,Mittagong
Tweed Heads,Australia,Asia & Pacific ,-28.1833,153.55,8176,AU,AUS,New South Wales,Tweed Heads
Benalla,Australia,Asia & Pacific ,-36.5519,145.9817,9298,AU,AUS,Victoria,Benalla
Emu Plains,Australia,Asia & Pacific ,-33.7483,150.6678,8421,AU,AUS,New South Wales,Emu Plains
Wallan,Australia,Asia & Pacific ,-37.4167,144.9833,8520,AU,AUS,Victoria,Wallan
Currumbin,Australia,Asia & Pacific ,-28.158,153.469,9121,AU,AUS,Queensland,Currumbin
Bli Bli,Australia,Asia & Pacific ,-26.618,153.037,7801,AU,AUS,Queensland,Bli Bli
Moss Vale,Australia,Asia & Pacific ,-34.5483,150.3678,8579,AU,AUS,New South Wales,Moss Vale
Clifton Springs,Australia,Asia & Pacific ,-38.15,144.5667,7519,AU,AUS,Victoria,Clifton Springs
Katoomba,Australia,Asia & Pacific ,-33.715,150.3128,7964,AU,AUS,New South Wales,Katoomba
Wollert,Australia,Asia & Pacific ,-37.597,145.033,9060,AU,AUS,Victoria,Wollert
Kelso,Australia,Asia & Pacific ,-33.4186,149.6056,8968,AU,AUS,New South Wales,Kelso
Merrimac,Australia,Asia & Pacific ,-28.05,153.3667,7071,AU,AUS,New South Wales,Merrimac
Ayr,Australia,Asia & Pacific ,-19.5744,147.4066,8738,AU,AUS,Queensland,Ayr
Ararat,Australia,Asia & Pacific ,-37.2833,142.9167,8300,AU,AUS,Victoria,Ararat
Charters Towers,Australia,Asia & Pacific ,-20.1,146.2667,8120,AU,AUS,Queensland,Charters Towers
Rye,Australia,Asia & Pacific ,-38.377,144.838,8416,AU,AUS,Victoria,Rye
Moe,Australia,Asia & Pacific ,-38.1722,146.2678,8778,AU,AUS,Victoria,Moe
Deniliquin,Australia,Asia & Pacific ,-35.5317,144.9344,7862,AU,AUS,New South Wales,Deniliquin
Darley,Australia,Asia & Pacific ,-37.6547,144.437,8372,AU,AUS,Victoria,Darley
Moranbah,Australia,Asia & Pacific ,-22.0016,148.0533,8735,AU,AUS,Queensland,Moranbah
Forbes,Australia,Asia & Pacific ,-33.3833,148.0167,8432,AU,AUS,New South Wales,Forbes
Maryborough,Australia,Asia & Pacific ,-37.05,143.735,7921,AU,AUS,Victoria,Maryborough
Springwood,Australia,Asia & Pacific ,-33.6967,150.5683,8475,AU,AUS,New South Wales,Springwood
Highfields,Australia,Asia & Pacific ,-27.4581,151.9492,8131,AU,AUS,Queensland,Highfields
Innisfail,Australia,Asia & Pacific ,-17.5236,146.0292,7236,AU,AUS,Queensland,Innisfail
Mooroopna,Australia,Asia & Pacific ,-36.3833,145.35,7942,AU,AUS,Victoria,Mooroopna
Narrabri,Australia,Asia & Pacific ,-30.3317,149.7678,7606,AU,AUS,New South Wales,Narrabri
Kingscliff,Australia,Asia & Pacific ,-28.2564,153.5781,7464,AU,AUS,New South Wales,Kingscliff
Lesmurdie,Australia,Asia & Pacific ,-31.994,116.05,8437,AU,AUS,Western Australia,Lesmurdie
Kilmore,Australia,Asia & Pacific ,-37.2833,144.95,7958,AU,AUS,Victoria,Kilmore
Yarrawonga,Australia,Asia & Pacific ,-36.0167,146,7930,AU,AUS,Victoria,Yarrawonga
Bargara,Australia,Asia & Pacific ,-24.8205,152.4625,7485,AU,AUS,Queensland,Bargara
Kiama,Australia,Asia & Pacific ,-34.6708,150.8542,7700,AU,AUS,New South Wales,Kiama
Bongaree,Australia,Asia & Pacific ,-27.0814,153.1633,6947,AU,AUS,Queensland,Bongaree
Sanctuary Point,Australia,Asia & Pacific ,-35.1036,150.6267,7225,AU,AUS,New South Wales,Sanctuary Point
Kyabram,Australia,Asia & Pacific ,-36.3167,145.05,7321,AU,AUS,Victoria,Kyabram
Healesville,Australia,Asia & Pacific ,-37.6561,145.5139,7461,AU,AUS,Victoria,Healesville
Melton,Australia,Asia & Pacific ,-37.6833,144.5833,8069,AU,AUS,Victoria,Melton
Burpengary,Australia,Asia & Pacific ,-27.1442,153,6433,AU,AUS,Queensland,Burpengary
Narre Warren North,Australia,Asia & Pacific ,-37.9833,145.3167,7674,AU,AUS,Victoria,Narre Warren North
Mandurah,Australia,Asia & Pacific ,-32.5289,115.7231,7837,AU,AUS,Western Australia,Mandurah
Kyneton,Australia,Asia & Pacific ,-37.2333,144.45,6951,AU,AUS,Victoria,Kyneton
Fremantle,Australia,Asia & Pacific ,-32.0569,115.7439,7459,AU,AUS,Western Australia,Fremantle
Collie,Australia,Asia & Pacific ,-33.363,116.156,7192,AU,AUS,Western Australia,Collie
North Tamborine,Australia,Asia & Pacific ,-27.9694,153.1992,7506,AU,AUS,Queensland,North Tamborine
Murwillumbah,Australia,Asia & Pacific ,-28.3333,153.3833,7032,AU,AUS,New South Wales,Murwillumbah
Cootamundra,Australia,Asia & Pacific ,-34.6417,148.025,6782,AU,AUS,New South Wales,Cootamundra
Bairnsdale,Australia,Asia & Pacific ,-37.8333,147.6167,7580,AU,AUS,Victoria,Bairnsdale
Urraween,Australia,Asia & Pacific ,-25.2955,152.8219,6969,AU,AUS,Queensland,Urraween
Castlemaine,Australia,Asia & Pacific ,-37.0636,144.2172,6757,AU,AUS,Victoria,Castlemaine
Blaxland,Australia,Asia & Pacific ,-33.7453,150.6175,7451,AU,AUS,New South Wales,Blaxland
Lennox Head,Australia,Asia & Pacific ,-28.7983,153.5844,6407,AU,AUS,New South Wales,Lennox Head
Bomaderry,Australia,Asia & Pacific ,-34.848,150.605,6661,AU,AUS,New South Wales,Bomaderry
Atherton,Australia,Asia & Pacific ,-17.2658,145.478,7331,AU,AUS,Queensland,Atherton
Tuncurry,Australia,Asia & Pacific ,-32.175,152.4989,6186,AU,AUS,New South Wales,Tuncurry
Strathalbyn,Australia,Asia & Pacific ,-35.2667,138.9,6504,AU,AUS,South Australia,Strathalbyn
Seymour,Australia,Asia & Pacific ,-37.03,145.13,6327,AU,AUS,Victoria,Seymour
Cannington,Australia,Asia & Pacific ,-32.0167,115.95,5929,AU,AUS,Western Australia,Cannington
Wauchope,Australia,Asia & Pacific ,-31.465,152.7344,6312,AU,AUS,New South Wales,Wauchope
Helensburgh,Australia,Asia & Pacific ,-34.1833,151,6383,AU,AUS,New South Wales,Helensburgh
Yass,Australia,Asia & Pacific ,-34.8203,148.9136,6506,AU,AUS,New South Wales,Yass
Gatton,Australia,Asia & Pacific ,-27.5611,152.2755,7101,AU,AUS,Queensland,Gatton
Kurri Kurri,Australia,Asia & Pacific ,-32.8167,151.4833,6044,AU,AUS,New South Wales,Kurri Kurri
Cooma,Australia,Asia & Pacific ,-36.235,149.1258,6681,AU,AUS,New South Wales,Cooma
Nuriootpa,Australia,Asia & Pacific ,-34.4667,138.9833,6314,AU,AUS,South Australia,Nuriootpa
Granville,Australia,Asia & Pacific ,-33.8578,151.0106,5500,AU,AUS,New South Wales,Granville
Tumut,Australia,Asia & Pacific ,-35.3047,148.2228,6230,AU,AUS,New South Wales,Tumut
Cannonvale,Australia,Asia & Pacific ,-20.2863,148.6866,5716,AU,AUS,Queensland,Cannonvale
Point Vernon,Australia,Asia & Pacific ,-25.2538,152.8177,5699,AU,AUS,Queensland,Point Vernon
Nambucca Heads,Australia,Asia & Pacific ,-30.6414,152.9906,6327,AU,AUS,New South Wales,Nambucca Heads
Wynyard,Australia,Asia & Pacific ,-41,145.7167,6001,AU,AUS,Tasmania,Wynyard
North Mackay,Australia,Asia & Pacific ,-21.1216,149.1783,5933,AU,AUS,Queensland,North Mackay
Roma,Australia,Asia & Pacific ,-26.5733,148.7869,6848,AU,AUS,Queensland,Roma
Stawell,Australia,Asia & Pacific ,-37.05,142.7667,6032,AU,AUS,Victoria,Stawell
Beerwah,Australia,Asia & Pacific ,-26.8556,152.96,6769,AU,AUS,Queensland,Beerwah
Northam,Australia,Asia & Pacific ,-31.6531,116.6661,6548,AU,AUS,Western Australia,Northam
Mount Cotton,Australia,Asia & Pacific ,-27.6188,153.221,6835,AU,AUS,Queensland,Mount Cotton
Alstonville,Australia,Asia & Pacific ,-28.8317,153.4344,5739,AU,AUS,New South Wales,Alstonville
Margaret River,Australia,Asia & Pacific ,-33.955,115.075,6392,AU,AUS,Western Australia,Margaret River
Glen Innes,Australia,Asia & Pacific ,-29.75,151.7361,6155,AU,AUS,New South Wales,Glen Innes
Yamba,Australia,Asia & Pacific ,-29.4333,153.35,6076,AU,AUS,New South Wales,Yamba
Waterford,Australia,Asia & Pacific ,-27.6833,153.133,6431,AU,AUS,Queensland,Waterford
Kiama Downs,Australia,Asia & Pacific ,-34.6317,150.8511,5004,AU,AUS,New South Wales,Kiama Downs
Pottsville,Australia,Asia & Pacific ,-28.3869,153.5608,6704,AU,AUS,New South Wales,Pottsville
Chinchilla,Australia,Asia & Pacific ,-26.7397,150.625,6612,AU,AUS,Queensland,Chinchilla
Lysterfield,Australia,Asia & Pacific ,-37.9333,145.3,6663,AU,AUS,Victoria,Lysterfield
Cooranbong,Australia,Asia & Pacific ,-33.074,151.451,5449,AU,AUS,New South Wales,Cooranbong
Wentworth Falls,Australia,Asia & Pacific ,-33.7164,150.3772,6076,AU,AUS,New South Wales,Wentworth Falls
Scone,Australia,Asia & Pacific ,-32.0833,150.85,5624,AU,AUS,New South Wales,Scone
Beaudesert,Australia,Asia & Pacific ,-27.988,152.9958,6395,AU,AUS,Queensland,Beaudesert
Dromana,Australia,Asia & Pacific ,-38.338,144.965,5803,AU,AUS,Victoria,Dromana
West Tamworth,Australia,Asia & Pacific ,-31.0894,150.9436,5342,AU,AUS,New South Wales,West Tamworth
South Grafton,Australia,Asia & Pacific ,-29.715,152.9344,6068,AU,AUS,New South Wales,South Grafton
Kununurra,Australia,Asia & Pacific ,-15.7736,128.7386,5308,AU,AUS,Western Australia,Kununurra
Naracoorte,Australia,Asia & Pacific ,-36.955,140.7429,5960,AU,AUS,South Australia,Naracoorte
Corowa,Australia,Asia & Pacific ,-35.9833,146.3833,5482,AU,AUS,New South Wales,Corowa
Woolgoolga,Australia,Asia & Pacific ,-30.115,153.2011,5290,AU,AUS,New South Wales,Woolgoolga
Goondiwindi,Australia,Asia & Pacific ,-28.5461,150.3097,6355,AU,AUS,Queensland,Goondiwindi
Cobram,Australia,Asia & Pacific ,-35.9667,145.65,6014,AU,AUS,Victoria,Cobram
Maffra,Australia,Asia & Pacific ,-37.95,146.983,5280,AU,AUS,Victoria,Maffra
Tahmoor,Australia,Asia & Pacific ,-34.2233,150.5928,5067,AU,AUS,New South Wales,Tahmoor
Woodend,Australia,Asia & Pacific ,-37.363,144.526,5806,AU,AUS,Victoria,Woodend
Inverloch,Australia,Asia & Pacific ,-38.6334,145.7278,5437,AU,AUS,Victoria,Inverloch
Whittlesea,Australia,Asia & Pacific ,-37.5139,145.114,5611,AU,AUS,Victoria,Whittlesea
Emerald,Australia,Asia & Pacific ,-37.9331,145.437,5778,AU,AUS,Victoria,Emerald
Richmond,Australia,Asia & Pacific ,-33.5983,150.7511,5482,AU,AUS,New South Wales,Richmond
New Norfolk,Australia,Asia & Pacific ,-42.7828,147.0594,5432,AU,AUS,Tasmania,New Norfolk
East Ballina,Australia,Asia & Pacific ,-28.8594,153.5872,5571,AU,AUS,New South Wales,East Ballina
Biloela,Australia,Asia & Pacific ,-24.4002,150.5133,5758,AU,AUS,Queensland,Biloela
Worragee,Australia,Asia & Pacific ,-34.9144,150.6386,5068,AU,AUS,New South Wales,Worragee
Wingham,Australia,Asia & Pacific ,-31.85,152.367,5374,AU,AUS,New South Wales,Wingham
Leongatha,Australia,Asia & Pacific ,-38.4833,145.95,5119,AU,AUS,Victoria,Leongatha
Palmwoods,Australia,Asia & Pacific ,-26.6883,152.9597,5676,AU,AUS,Queensland,Palmwoods
Dunsborough,Australia,Asia & Pacific ,-33.6167,115.1,5320,AU,AUS,Western Australia,Dunsborough
Irymple,Australia,Asia & Pacific ,-34.2333,142.1667,5325,AU,AUS,Victoria,Irymple
Red Cliffs,Australia,Asia & Pacific ,-34.3075,142.1881,5060,AU,AUS,Victoria,Red Cliffs
Bannockburn,Australia,Asia & Pacific ,-38.05,144.1667,5283,AU,AUS,Victoria,Bannockburn
Glenbrook,Australia,Asia & Pacific ,-33.765,150.6267,5051,AU,AUS,New South Wales,Glenbrook
Smithfield Heights,Australia,Asia & Pacific ,-16.8314,145.691,5303,AU,AUS,Queensland,Smithfield Heights
Sarina,Australia,Asia & Pacific ,-21.4225,149.2175,5522,AU,AUS,Queensland,Sarina
Byron Bay,Australia,Asia & Pacific ,-28.6483,153.6178,5521,AU,AUS,New South Wales,Byron Bay
Wonthaggi,Australia,Asia & Pacific ,-38.6056,145.5917,4965,AU,AUS,Victoria,Wonthaggi
Ocean Shores,Australia,Asia & Pacific ,-28.5092,153.5375,5137,AU,AUS,New South Wales,Ocean Shores
Berri,Australia,Asia & Pacific ,-34.2833,140.6,4103,AU,AUS,South Australia,Berri
Howard Springs,Australia,Asia & Pacific ,-12.4922,131.053,5132,AU,AUS,Northern Territory,Howard Springs
Tannum Sands,Australia,Asia & Pacific ,-23.9474,151.3675,5145,AU,AUS,Queensland,Tannum Sands
Victor Harbor,Australia,Asia & Pacific ,-35.55,138.6167,4233,AU,AUS,South Australia,Victor Harbor
Ingham,Australia,Asia & Pacific ,-18.65,146.1667,4357,AU,AUS,Queensland,Ingham
Manjimup,Australia,Asia & Pacific ,-34.2411,116.1464,4349,AU,AUS,Western Australia,Manjimup
Carnarvon,Australia,Asia & Pacific ,-24.8672,113.6611,4426,AU,AUS,Western Australia,Carnarvon
Smithton,Australia,Asia & Pacific ,-40.844,145.12,3881,AU,AUS,Tasmania,Smithton
Narrogin,Australia,Asia & Pacific ,-32.936,117.178,4274,AU,AUS,Western Australia,Narrogin
Newman,Australia,Asia & Pacific ,-23.3539,119.7319,4567,AU,AUS,Western Australia,Newman
Merimbula,Australia,Asia & Pacific ,-36.8983,149.9011,3544,AU,AUS,New South Wales,Merimbula
Katanning,Australia,Asia & Pacific ,-33.6908,117.5553,3687,AU,AUS,Western Australia,Katanning
Weipa,Australia,Asia & Pacific ,-12.6167,141.8667,3899,AU,AUS,Queensland,Weipa
Wallaroo,Australia,Asia & Pacific ,-33.9167,137.6167,3988,AU,AUS,South Australia,Wallaroo
Central Coast,Australia,Asia & Pacific ,-33.42,151.3,3026,AU,AUS,New South Wales,Central Coast
Proserpine,Australia,Asia & Pacific ,-20.4017,148.5814,3562,AU,AUS,Queensland,Proserpine
Port Douglas,Australia,Asia & Pacific ,-16.4834,145.4652,3504,AU,AUS,Queensland,Port Douglas
Clare,Australia,Asia & Pacific ,-33.8333,138.6,3160,AU,AUS,South Australia,Clare
Tom Price,Australia,Asia & Pacific ,-22.6939,117.795,3005,AU,AUS,Western Australia,Tom Price
Charleville,Australia,Asia & Pacific ,-26.4016,146.2383,3335,AU,AUS,Queensland,Charleville
Cloncurry,Australia,Asia & Pacific ,-20.7,140.5,2719,AU,AUS,Queensland,Cloncurry
Bordertown,Australia,Asia & Pacific ,-36.3118,140.7702,2953,AU,AUS,South Australia,Bordertown
Longreach,Australia,Asia & Pacific ,-23.4422,144.2491,2970,AU,AUS,Queensland,Longreach
Merredin,Australia,Asia & Pacific ,-31.482,118.279,2850,AU,AUS,Western Australia,Merredin
Scottsdale,Australia,Asia & Pacific ,-41.1667,147.5167,2373,AU,AUS,Tasmania,Scottsdale
Bourke,Australia,Asia & Pacific ,-30.0817,145.9511,1909,AU,AUS,New South Wales,Bourke
Exmouth,Australia,Asia & Pacific ,-21.9331,114.1281,2486,AU,AUS,Western Australia,Exmouth
Queenstown,Australia,Asia & Pacific ,-42.0667,145.55,1790,AU,AUS,Tasmania,Queenstown
Mount Barker,Australia,Asia & Pacific ,-34.63,117.6669,1905,AU,AUS,Western Australia,Mount Barker
Wagin,Australia,Asia & Pacific ,-33.3167,117.35,1824,AU,AUS,Western Australia,Wagin
Kingston South East,Australia,Asia & Pacific ,-36.8167,139.85,1648,AU,AUS,South Australia,Kingston South East
Tumby Bay,Australia,Asia & Pacific ,-34.3667,136.1,1474,AU,AUS,South Australia,Tumby Bay
Kalbarri,Australia,Asia & Pacific ,-27.71,114.16,1349,AU,AUS,Western Australia,Kalbarri
Port Denison,Australia,Asia & Pacific ,-29.2833,114.9167,1410,AU,AUS,Western Australia,Port Denison
Penola,Australia,Asia & Pacific ,-37.3786,140.8362,1312,AU,AUS,South Australia,Penola
Streaky Bay,Australia,Asia & Pacific ,-32.8,134.2167,1378,AU,AUS,South Australia,Streaky Bay
Halls Creek,Australia,Asia & Pacific ,-18.23,127.67,1546,AU,AUS,Western Australia,Halls Creek
Peterborough,Australia,Asia & Pacific ,-32.9667,138.8333,1416,AU,AUS,South Australia,Peterborough
Ouyen,Australia,Asia & Pacific ,-35.0667,142.317,1191,AU,AUS,Victoria,Ouyen
Katherine,Australia,Asia & Pacific ,-14.4667,132.2667,1488,AU,AUS,Northern Territory,Katherine
Oatlands,Australia,Asia & Pacific ,-42.2996,147.3666,1157,AU,AUS,Tasmania,Oatlands
Barcaldine,Australia,Asia & Pacific ,-23.5555,145.2888,1422,AU,AUS,Queensland,Barcaldine
Cowell,Australia,Asia & Pacific ,-33.6833,136.9167,1109,AU,AUS,South Australia,Cowell
Meningie,Australia,Asia & Pacific ,-35.6883,139.338,1118,AU,AUS,South Australia,Meningie
Hughenden,Australia,Asia & Pacific ,-20.8438,144.1986,1136,AU,AUS,Queensland,Hughenden
Meekatharra,Australia,Asia & Pacific ,-26.5931,118.4911,708,AU,AUS,Western Australia,Meekatharra
Yulara,Australia,Asia & Pacific ,-25.2406,130.9889,1099,AU,AUS,Northern Territory,Yulara
Wyndham,Australia,Asia & Pacific ,-15.4825,128.123,780,AU,AUS,Western Australia,Wyndham
Roebourne,Australia,Asia & Pacific ,-20.7667,117.15,981,AU,AUS,Western Australia,Roebourne
Bicheno,Australia,Asia & Pacific ,-41.8667,148.2833,943,AU,AUS,Tasmania,Bicheno
Winton,Australia,Asia & Pacific ,-22.3913,143.0381,875,AU,AUS,Queensland,Winton
Leonora,Australia,Asia & Pacific ,-28.88,121.33,781,AU,AUS,Western Australia,Leonora
Gingin,Australia,Asia & Pacific ,-31.34,115.91,852,AU,AUS,Western Australia,Gingin
Wilcannia,Australia,Asia & Pacific ,-31.565,143.3678,745,AU,AUS,New South Wales,Wilcannia
Onslow,Australia,Asia & Pacific ,-21.6333,115.1167,857,AU,AUS,Western Australia,Onslow
Laverton,Australia,Asia & Pacific ,-28.628,122.403,871,AU,AUS,Western Australia,Laverton
Morawa,Australia,Asia & Pacific ,-29.2111,116.009,532,AU,AUS,Western Australia,Morawa
Southern Cross,Australia,Asia & Pacific ,-31.25,119.35,680,AU,AUS,Western Australia,Southern Cross
Norseman,Australia,Asia & Pacific ,-32.1961,121.778,581,AU,AUS,Western Australia,Norseman
Ravensthorpe,Australia,Asia & Pacific ,-33.5831,120.049,498,AU,AUS,Western Australia,Ravensthorpe
Eidsvold,Australia,Asia & Pacific ,-25.3667,151.1333,574,AU,AUS,Queensland,Eidsvold
Pannawonica,Australia,Asia & Pacific ,-21.6333,116.333,695,AU,AUS,Western Australia,Pannawonica
Kimba,Australia,Asia & Pacific ,-33.1333,136.417,629,AU,AUS,South Australia,Kimba
Mount Magnet,Australia,Asia & Pacific ,-28.06,117.846,470,AU,AUS,Western Australia,Mount Magnet
Three Springs,Australia,Asia & Pacific ,-29.5333,115.717,381,AU,AUS,Western Australia,Three Springs
Theodore,Australia,Asia & Pacific ,-24.95,150.0833,438,AU,AUS,Queensland,Theodore
Karumba,Australia,Asia & Pacific ,-17.4838,140.8397,531,AU,AUS,Queensland,Karumba
Richmond,Australia,Asia & Pacific ,-20.7306,143.1422,522,AU,AUS,Queensland,Richmond
Andamooka,Australia,Asia & Pacific ,-30.447,137.166,316,AU,AUS,South Australia,Andamooka
Georgetown,Australia,Asia & Pacific ,-18.3,143.55,348,AU,AUS,Queensland,Georgetown
Boulia,Australia,Asia & Pacific ,-22.9,139.9,301,AU,AUS,Queensland,Boulia
Adelaide River,Australia,Asia & Pacific ,-13.2381,131.1061,353,AU,AUS,Northern Territory,Adelaide River
Burketown,Australia,Asia & Pacific ,-17.7167,139.5667,238,AU,AUS,Queensland,Burketown
Ivanhoe,Australia,Asia & Pacific ,-32.8983,144.3,327,AU,AUS,New South Wales,Ivanhoe
Thargomindah,Australia,Asia & Pacific ,-28,143.8167,270,AU,AUS,Queensland,Thargomindah
Pine Creek,Australia,Asia & Pacific ,-13.8231,131.833,328,AU,AUS,Northern Territory,Pine Creek
Camooweal,Australia,Asia & Pacific ,-19.9167,138.117,208,AU,AUS,Queensland,Camooweal
Birdsville,Australia,Asia & Pacific ,-25.8989,139.352,140,AU,AUS,Queensland,Birdsville
Bedourie,Australia,Asia & Pacific ,-24.35,139.4667,122,AU,AUS,Queensland,Bedourie
Windorah,Australia,Asia & Pacific ,-25.4206,142.6547,115,AU,AUS,Queensland,Windorah
Kingoonya,Australia,Asia & Pacific ,-30.9,135.3,13,AU,AUS,South Australia,Kingoonya
Yanchep,Australia,Asia & Pacific ,-31.55,115.634,8868,AU,AUS,Western Australia,Yanchep
Gordonvale,Australia,Asia & Pacific ,-17.0936,145.7866,6671,AU,AUS,Queensland,Gordonvale
Stanthorpe,Australia,Asia & Pacific ,-28.6547,151.935,5406,AU,AUS,Queensland,Stanthorpe
Bullsbrook,Australia,Asia & Pacific ,-31.663,116.03,5448,AU,AUS,Western Australia,Bullsbrook
McMinns Lagoon,Australia,Asia & Pacific ,-12.5329,131.05,5025,AU,AUS,Northern Territory,McMinns Lagoon
Ceduna,Australia,Asia & Pacific ,-32.1167,133.6667,2157,AU,AUS,South Australia,Ceduna
Quilpie,Australia,Asia & Pacific ,-26.6161,144.2675,595,AU,AUS,Queensland,Quilpie
Woomera,Australia,Asia & Pacific ,-31.1496,136.8,450,AU,AUS,South Australia,Woomera
Vienna,Austria,Europe ,48.2083,16.3731,1840573,AT,AUT,Wien,Vienna
Graz,Austria,Europe ,47.0667,15.4333,289440,AT,AUT,Steiermark,Graz
Linz,Austria,Europe ,48.3,14.2833,204846,AT,AUT,Oberösterreich,Linz
Salzburg,Austria,Europe ,47.7972,13.0477,154076,AT,AUT,Salzburg,Salzburg
Innsbruck,Austria,Europe ,47.2683,11.3933,132493,AT,AUT,Tirol,Innsbruck
Klagenfurt,Austria,Europe ,46.6167,14.3,101403,AT,AUT,Kärnten,Klagenfurt
Sankt Polten,Austria,Europe ,48.2,15.6167,55514,AT,AUT,Niederösterreich,Sankt Pölten
Bregenz,Austria,Europe ,47.505,9.7492,28697,AT,AUT,Vorarlberg,Bregenz
Modling,Austria,Europe ,48.0856,16.2831,20555,AT,AUT,Niederösterreich,Mödling
Hall in Tirol,Austria,Europe ,47.2833,11.5,13897,AT,AUT,Tirol,Hall in Tirol
Eisenstadt,Austria,Europe ,47.8456,16.5189,14476,AT,AUT,Burgenland,Eisenstadt
Weiz,Austria,Europe ,47.2189,15.6253,11431,AT,AUT,Steiermark,Weiz
Wiener Neustadt,Austria,Europe ,47.816,16.25,82762,AT,AUT,Niederösterreich,Wiener Neustadt
Wels,Austria,Europe ,48.15,14.0167,61233,AT,AUT,Oberösterreich,Wels
Villach,Austria,Europe ,46.6167,13.8333,61879,AT,AUT,Kärnten,Villach
Dornbirn,Austria,Europe ,47.4167,9.75,48067,AT,AUT,Vorarlberg,Dornbirn
Steyr,Austria,Europe ,48.05,14.4167,38331,AT,AUT,Oberösterreich,Steyr
Leonding,Austria,Europe ,48.2792,14.2528,28698,AT,AUT,Oberösterreich,Leonding
Klosterneuburg,Austria,Europe ,48.3042,16.3167,27058,AT,AUT,Niederösterreich,Klosterneuburg
Traun,Austria,Europe ,48.2217,14.2397,24477,AT,AUT,Oberösterreich,Traun
Wolfsberg,Austria,Europe ,46.8419,14.8408,25035,AT,AUT,Kärnten,Wolfsberg
Krems an der Donau,Austria,Europe ,48.4167,15.6167,24610,AT,AUT,Niederösterreich,Krems an der Donau
Leoben,Austria,Europe ,47.3817,15.0972,24645,AT,AUT,Steiermark,Leoben
Amstetten,Austria,Europe ,48.1167,14.8667,23656,AT,AUT,Niederösterreich,Amstetten
Lustenau,Austria,Europe ,47.4271,9.6711,22821,AT,AUT,Vorarlberg,Lustenau
Kapfenberg,Austria,Europe ,47.4394,15.2894,22798,AT,AUT,Steiermark,Kapfenberg
Hallein,Austria,Europe ,47.6667,13.0833,21150,AT,AUT,Salzburg,Hallein
Kufstein,Austria,Europe ,47.5833,12.1667,19223,AT,AUT,Tirol,Kufstein
Traiskirchen,Austria,Europe ,48.0189,16.2922,18858,AT,AUT,Niederösterreich,Traiskirchen
Schwechat,Austria,Europe ,48.1411,16.4786,18026,AT,AUT,Niederösterreich,Schwechat
Stockerau,Austria,Europe ,48.3858,16.2108,16916,AT,AUT,Niederösterreich,Stockerau
Braunau am Inn,Austria,Europe ,48.2583,13.0333,17095,AT,AUT,Oberösterreich,Braunau am Inn
Hohenems,Austria,Europe ,47.3667,9.6667,16317,AT,AUT,Vorarlberg,Hohenems
Saalfelden am Steinernen Meer,Austria,Europe ,47.4269,12.8483,16700,AT,AUT,Salzburg,Saalfelden am Steinernen Meer
Ansfelden,Austria,Europe ,48.2083,14.2889,16194,AT,AUT,Oberösterreich,Ansfelden
Muckendorf an der Donau,Austria,Europe ,48.3333,16.05,16197,AT,AUT,Niederösterreich,Muckendorf an der Donau
Bruck an der Mur,Austria,Europe ,47.4106,15.2686,15837,AT,AUT,Steiermark,Bruck an der Mur
Spittal an der Drau,Austria,Europe ,46.7917,13.4958,15413,AT,AUT,Kärnten,Spittal an der Drau
Bludenz,Austria,Europe ,47.1533,9.8219,14539,AT,AUT,Vorarlberg,Bludenz
Ternitz,Austria,Europe ,47.7167,16.0333,14632,AT,AUT,Niederösterreich,Ternitz
Worgl,Austria,Europe ,47.4831,12.0664,13811,AT,AUT,Tirol,Wörgl
Feldkirchen,Austria,Europe ,46.7236,14.0919,14198,AT,AUT,Kärnten,Feldkirchen
Korneuburg,Austria,Europe ,48.3453,16.3331,12986,AT,AUT,Niederösterreich,Korneuburg
Bad Ischl,Austria,Europe ,47.7115,13.6239,14133,AT,AUT,Oberösterreich,Bad Ischl
Marchtrenk,Austria,Europe ,48.1917,14.1106,13603,AT,AUT,Oberösterreich,Marchtrenk
Schwaz,Austria,Europe ,47.35,11.7,13728,AT,AUT,Tirol,Schwaz
Feldbach,Austria,Europe ,46.955,15.8883,13369,AT,AUT,Steiermark,Feldbach
Knittelfeld,Austria,Europe ,47.215,14.8294,12626,AT,AUT,Steiermark,Knittelfeld
Neunkirchen,Austria,Europe ,47.7269,16.0817,12879,AT,AUT,Niederösterreich,Neunkirchen
Gmunden,Austria,Europe ,47.9181,13.7994,13191,AT,AUT,Oberösterreich,Gmunden
Vocklabruck,Austria,Europe ,48.0086,13.6558,12179,AT,AUT,Oberösterreich,Vöcklabruck
Sankt Veit an der Glan,Austria,Europe ,46.7667,14.3603,12547,AT,AUT,Kärnten,Sankt Veit an der Glan
Leibnitz,Austria,Europe ,46.7831,15.545,12176,AT,AUT,Steiermark,Leibnitz
Lienz,Austria,Europe ,46.8297,12.7697,11844,AT,AUT,Tirol,Lienz
Ried im Innkreis,Austria,Europe ,48.21,13.4894,11903,AT,AUT,Oberösterreich,Ried im Innkreis
Enns,Austria,Europe ,48.2167,14.475,11937,AT,AUT,Oberösterreich,Enns
Bad Voslau,Austria,Europe ,47.9669,16.2144,11844,AT,AUT,Niederösterreich,Bad Vöslau
Ganserndorf,Austria,Europe ,48.3406,16.7175,11404,AT,AUT,Niederösterreich,Gänserndorf
Hollabrunn,Austria,Europe ,48.5667,16.0833,11681,AT,AUT,Niederösterreich,Hollabrunn
Deutschlandsberg,Austria,Europe ,46.8161,15.215,11604,AT,AUT,Steiermark,Deutschlandsberg
Mistelbach,Austria,Europe ,48.5667,16.5667,11559,AT,AUT,Niederösterreich,Mistelbach
Gerasdorf bei Wien,Austria,Europe ,48.295,16.4675,11155,AT,AUT,Niederösterreich,Gerasdorf bei Wien
Waidhofen an der Ybbs,Austria,Europe ,47.9596,14.7745,11333,AT,AUT,Niederösterreich,Waidhofen an der Ybbs
Gross-Enzersdorf,Austria,Europe ,48.2,16.55,11206,AT,AUT,Niederösterreich,Groß-Enzersdorf
Trofaiach,Austria,Europe ,47.4261,15.0067,11125,AT,AUT,Steiermark,Trofaiach
Ebreichsdorf,Austria,Europe ,47.9611,16.4047,10942,AT,AUT,Niederösterreich,Ebreichsdorf
Sankt Johann im Pongau,Austria,Europe ,47.35,13.2,10944,AT,AUT,Salzburg,Sankt Johann im Pongau
Gleisdorf,Austria,Europe ,47.1039,15.7083,10763,AT,AUT,Steiermark,Gleisdorf
Volkermarkt,Austria,Europe ,46.6622,14.6344,10946,AT,AUT,Kärnten,Völkermarkt
Zwettl,Austria,Europe ,48.6033,15.1689,10908,AT,AUT,Niederösterreich,Zwettl
Bischofshofen,Austria,Europe ,47.4172,13.2194,10540,AT,AUT,Salzburg,Bischofshofen
Imst,Austria,Europe ,47.2394,10.7381,10504,AT,AUT,Tirol,Imst
Koflach,Austria,Europe ,47.0639,15.0889,9888,AT,AUT,Steiermark,Köflach
Laakirchen,Austria,Europe ,47.9828,13.8242,9861,AT,AUT,Oberösterreich,Laakirchen
Judenburg,Austria,Europe ,47.1725,14.6603,9960,AT,AUT,Steiermark,Judenburg
Sankt Andra,Austria,Europe ,46.7667,14.8167,9957,AT,AUT,Kärnten,Sankt Andrä
Purkersdorf,Austria,Europe ,48.2092,16.1792,9701,AT,AUT,Niederösterreich,Purkersdorf
Zell am See,Austria,Europe ,47.3233,12.7981,9762,AT,AUT,Salzburg,Zell am See
Voitsberg,Austria,Europe ,47.0483,15.1503,9403,AT,AUT,Steiermark,Voitsberg
Attnang-Puchheim,Austria,Europe ,48.0167,13.7167,8944,AT,AUT,Oberösterreich,Attnang-Puchheim
Sankt Valentin,Austria,Europe ,48.1747,14.5333,9340,AT,AUT,Niederösterreich,Sankt Valentin
Deutsch-Wagram,Austria,Europe ,48.2994,16.5644,8651,AT,AUT,Niederösterreich,Deutsch-Wagram
Murzzuschlag,Austria,Europe ,47.6075,15.6731,8654,AT,AUT,Steiermark,Mürzzuschlag
Furstenfeld,Austria,Europe ,47.05,16.0833,8549,AT,AUT,Steiermark,Fürstenfeld
Perg,Austria,Europe ,48.2503,14.6336,8388,AT,AUT,Oberösterreich,Perg
Freistadt,Austria,Europe ,48.5117,14.5061,7909,AT,AUT,Oberösterreich,Freistadt
Neulengbach,Austria,Europe ,48.1833,15.9,8281,AT,AUT,Niederösterreich,Neulengbach
Kitzbuhel,Austria,Europe ,47.4464,12.3919,8272,AT,AUT,Tirol,Kitzbühel
Neusiedl am See,Austria,Europe ,47.9486,16.8431,8235,AT,AUT,Burgenland,Neusiedl am See
Liezen,Austria,Europe ,47.5667,14.2333,8191,AT,AUT,Steiermark,Liezen
Bruck an der Leitha,Austria,Europe ,48.0255,16.779,7887,AT,AUT,Niederösterreich,Bruck an der Leitha
Landeck,Austria,Europe ,47.1333,10.5667,7725,AT,AUT,Tirol,Landeck
Kindberg,Austria,Europe ,47.5044,15.4489,8047,AT,AUT,Steiermark,Kindberg
Zeltweg,Austria,Europe ,47.1906,14.7511,7212,AT,AUT,Steiermark,Zeltweg
Herzogenburg,Austria,Europe ,48.2833,15.6833,7771,AT,AUT,Niederösterreich,Herzogenburg
Mattighofen,Austria,Europe ,48.1067,13.1494,6524,AT,AUT,Oberösterreich,Mattighofen
Oberwart,Austria,Europe ,47.2878,16.2031,7572,AT,AUT,Burgenland,Oberwart
Gallneukirchen,Austria,Europe ,48.3531,14.4158,6492,AT,AUT,Oberösterreich,Gallneukirchen
Langenlois,Austria,Europe ,48.4667,15.6833,7609,AT,AUT,Niederösterreich,Langenlois
Pressbaum,Austria,Europe ,48.1833,16.0825,7559,AT,AUT,Niederösterreich,Pressbaum
Mattersburg,Austria,Europe ,47.7381,16.3969,7349,AT,AUT,Burgenland,Mattersburg
Fehring,Austria,Europe ,46.9364,16.0106,7284,AT,AUT,Steiermark,Fehring
Wolkersdorf im Weinviertel,Austria,Europe ,48.3667,16.5167,7201,AT,AUT,Niederösterreich,Wolkersdorf im Weinviertel
Ferlach,Austria,Europe ,46.5269,14.3019,7141,AT,AUT,Kärnten,Ferlach
Oberndorf bei Salzburg,Austria,Europe ,47.9417,12.9417,5815,AT,AUT,Salzburg,Oberndorf bei Salzburg
Hartberg,Austria,Europe ,47.2806,15.97,6650,AT,AUT,Steiermark,Hartberg
Hainburg an der Donau,Austria,Europe ,48.1478,16.9419,6570,AT,AUT,Niederösterreich,Hainburg an der Donau
Frohnleiten,Austria,Europe ,47.2703,15.3244,6655,AT,AUT,Steiermark,Frohnleiten
Wilhelmsburg,Austria,Europe ,48.1108,15.61,6557,AT,AUT,Niederösterreich,Wilhelmsburg
Horn,Austria,Europe ,48.6653,15.6558,6520,AT,AUT,Niederösterreich,Horn
Schladming,Austria,Europe ,47.3942,13.6892,6660,AT,AUT,Steiermark,Schladming
Neumarkt am Wallersee,Austria,Europe ,47.9453,13.2247,6297,AT,AUT,Salzburg,Neumarkt am Wallersee
Traismauer,Austria,Europe ,48.3333,15.7331,6224,AT,AUT,Niederösterreich,Traismauer
Laa an der Thaya,Austria,Europe ,48.7167,16.3833,6280,AT,AUT,Niederösterreich,Laa an der Thaya
Gloggnitz,Austria,Europe ,47.6758,15.9383,5916,AT,AUT,Niederösterreich,Gloggnitz
Pinkafeld,Austria,Europe ,47.3717,16.1219,5779,AT,AUT,Burgenland,Pinkafeld
Radenthein,Austria,Europe ,46.8,13.7,5831,AT,AUT,Kärnten,Radenthein
Ybbs an der Donau,Austria,Europe ,48.1667,15.0667,5653,AT,AUT,Niederösterreich,Ybbs an der Donau
Fischamend,Austria,Europe ,48.1156,16.6128,5583,AT,AUT,Niederösterreich,Fischamend
Melk,Austria,Europe ,48.2269,15.3439,5529,AT,AUT,Niederösterreich,Melk
Haag,Austria,Europe ,48.1122,14.5656,5548,AT,AUT,Niederösterreich,Haag
Spielberg bei Knittelfeld,Austria,Europe ,47.2167,14.7833,5383,AT,AUT,Steiermark,Spielberg bei Knittelfeld
Waidhofen an der Thaya,Austria,Europe ,48.8167,15.2833,5501,AT,AUT,Niederösterreich,Waidhofen an der Thaya
Gmund,Austria,Europe ,48.7667,14.9833,5375,AT,AUT,Niederösterreich,Gmünd
Poysdorf,Austria,Europe ,48.6667,16.6333,5527,AT,AUT,Niederösterreich,Poysdorf
Schrems,Austria,Europe ,48.7833,15.0667,5404,AT,AUT,Niederösterreich,Schrems
Pregarten,Austria,Europe ,48.3556,14.5306,5293,AT,AUT,Oberösterreich,Pregarten
Zistersdorf,Austria,Europe ,48.5167,16.75,5391,AT,AUT,Niederösterreich,Zistersdorf
Grieskirchen,Austria,Europe ,48.235,13.8319,5002,AT,AUT,Oberösterreich,Grieskirchen
Scharding,Austria,Europe ,48.4569,13.4317,5253,AT,AUT,Oberösterreich,Schärding
Mittersill,Austria,Europe ,47.2667,12.4667,5380,AT,AUT,Salzburg,Mittersill
Bad Hall,Austria,Europe ,48.0344,14.2097,5043,AT,AUT,Oberösterreich,Bad Hall
Rottenmann,Austria,Europe ,47.5267,14.3558,5232,AT,AUT,Steiermark,Rottenmann
Hafendorf,Austria,Europe ,47.4556,15.3194,7177,AT,AUT,Steiermark,Hafendorf
Baku,Azerbaijan,Asia & Pacific ,40.3667,49.8352,2181800,AZ,AZE,Bakı,Baku
Sumqayit,Azerbaijan,Asia & Pacific ,40.5917,49.6397,341200,AZ,AZE,Sumqayıt,Sumqayıt
Ganca,Azerbaijan,Asia & Pacific ,40.6828,46.3606,331400,AZ,AZE,Gəncə,Gəncə
Mingacevir,Azerbaijan,Asia & Pacific ,40.77,47.0489,98800,AZ,AZE,Mingəçevir,Mingəçevir
Xirdalan,Azerbaijan,Asia & Pacific ,40.4486,49.7564,95200,AZ,AZE,Abşeron,Xırdalan
Naxcivan,Azerbaijan,Asia & Pacific ,39.2089,45.4122,74500,AZ,AZE,Naxçıvan,Naxçıvan
Saki,Azerbaijan,Asia & Pacific ,41.1919,47.1706,68360,AZ,AZE,Şəki,Şəki
Yevlax,Azerbaijan,Asia & Pacific ,40.6172,47.15,59036,AZ,AZE,Yevlax,Yevlax
Lankaran,Azerbaijan,Asia & Pacific ,38.7536,48.8511,51300,AZ,AZE,Lənkəran,Lənkəran
Samkir,Azerbaijan,Asia & Pacific ,40.8564,46.0172,40600,AZ,AZE,Şəmkir,Şəmkir
Xacmaz,Azerbaijan,Asia & Pacific ,41.4681,48.8028,39900,AZ,AZE,Xaçmaz,Xaçmaz
Agcabadi,Azerbaijan,Asia & Pacific ,40.0489,47.4502,39200,AZ,AZE,Ağcabədi,Ağcabədi
Barda,Azerbaijan,Asia & Pacific ,40.3831,47.1186,38500,AZ,AZE,Bərdə,Bərdə
Goycay,Azerbaijan,Asia & Pacific ,40.6553,47.7389,36200,AZ,AZE,Göyçay,Göyçay
Zaqatala,Azerbaijan,Asia & Pacific ,41.6336,46.6433,31300,AZ,AZE,Zaqatala,Zaqatala
Imisli,Azerbaijan,Asia & Pacific ,39.8697,48.06,31310,AZ,AZE,İmişli,İmişli
Salyan,Azerbaijan,Asia & Pacific ,39.5968,48.9837,30396,AZ,AZE,Salyan,Salyan
Agdas,Azerbaijan,Asia & Pacific ,40.65,47.4833,29600,AZ,AZE,Ağdaş,Ağdaş
Qazax,Azerbaijan,Asia & Pacific ,41.0933,45.3661,28000,AZ,AZE,Qazax,Qazax
Calilabad,Azerbaijan,Asia & Pacific ,39.2042,48.4958,25846,AZ,AZE,Cəlilabad,Cəlilabad
Haci Zeynalabdin,Azerbaijan,Asia & Pacific ,40.6242,49.5575,22000,AZ,AZE,Sumqayıt,Hacı Zeynalabdin
Bilasuvar,Azerbaijan,Asia & Pacific ,39.4481,48.5428,22800,AZ,AZE,Biləsuvar,Biləsuvar
Haciqabul,Azerbaijan,Asia & Pacific ,40.0375,48.935,21504,AZ,AZE,Hacıqabul,Hacıqabul
Quba,Azerbaijan,Asia & Pacific ,41.3653,48.5264,20791,AZ,AZE,Quba,Quba
Ismayilli,Azerbaijan,Asia & Pacific ,40.7839,48.1439,20660,AZ,AZE,İsmayıllı,İsmayıllı
Agsu,Azerbaijan,Asia & Pacific ,40.5708,48.3928,20200,AZ,AZE,Ağsu,Ağsu
Agstafa,Azerbaijan,Asia & Pacific ,41.1167,45.45,20200,AZ,AZE,Ağstafa,Ağstafa
Siyazan,Azerbaijan,Asia & Pacific ,41.0783,49.1061,18655,AZ,AZE,Siyəzən,Siyəzən
Sabirabad,Azerbaijan,Asia & Pacific ,40.0053,48.4719,18612,AZ,AZE,Sabirabad,Sabirabad
Saatli,Azerbaijan,Asia & Pacific ,39.9311,48.3697,17900,AZ,AZE,Saatlı,Saatlı
Astara,Azerbaijan,Asia & Pacific ,38.44,48.875,16800,AZ,AZE,Astara,Astara
Kurdamir,Azerbaijan,Asia & Pacific ,40.3383,48.1608,15385,AZ,AZE,Kürdəmir,Kürdəmir
Goygol,Azerbaijan,Asia & Pacific ,40.5905,46.3239,15338,AZ,AZE,Göygöl,Göygöl
Masalli,Azerbaijan,Asia & Pacific ,39.0183,48.6669,14746,AZ,AZE,Masallı,Masallı
Neftcala,Azerbaijan,Asia & Pacific ,39.3791,49.2486,14241,AZ,AZE,Neftçala,Neftçala
Qusar,Azerbaijan,Asia & Pacific ,41.4219,48.4214,14230,AZ,AZE,Qusar,Qusar
Tovuz,Azerbaijan,Asia & Pacific ,40.9864,45.6275,13700,AZ,AZE,Tovuz,Tovuz
Tartar,Azerbaijan,Asia & Pacific ,40.3353,46.9303,12563,AZ,AZE,Tərtər,Tərtər
Beylaqan,Azerbaijan,Asia & Pacific ,39.7692,47.6156,12263,AZ,AZE,Beyləqan,Beyləqan
Qax,Azerbaijan,Asia & Pacific ,41.4194,46.9181,11415,AZ,AZE,Qax,Qax
Daskasan,Azerbaijan,Asia & Pacific ,40.5181,46.0828,10700,AZ,AZE,Daşkəsən,Daşkəsən
Ordubad,Azerbaijan,Asia & Pacific ,38.9047,46.0231,10372,AZ,AZE,Ordubad,Ordubad
Zardab,Azerbaijan,Asia & Pacific ,40.2111,47.7108,8450,AZ,AZE,Zərdab,Zərdab
Balakan,Azerbaijan,Asia & Pacific ,41.7233,46.3919,8134,AZ,AZE,Balakən,Balakən
Qobustan,Azerbaijan,Asia & Pacific ,40.5333,48.9333,8100,AZ,AZE,Qobustan,Qobustan
Naftalan,Azerbaijan,Asia & Pacific ,40.5058,46.8192,7700,AZ,AZE,Naftalan,Naftalan
Oguz,Azerbaijan,Asia & Pacific ,41.0714,47.4653,7400,AZ,AZE,Oğuz,Oğuz
Goranboy,Azerbaijan,Asia & Pacific ,40.61,46.7872,7333,AZ,AZE,Goranboy,Goranboy
Lerik,Azerbaijan,Asia & Pacific ,38.7753,48.4153,7301,AZ,AZE,Lerik,Lerik
Gadabay,Azerbaijan,Asia & Pacific ,40.5656,45.8161,5049,AZ,AZE,Gədəbəy,Gədəbəy
Agdam,Azerbaijan,Asia & Pacific ,39.9833,46.9167,3770,AZ,AZE,Ağdam,Ağdam
Xocali,Azerbaijan,Asia & Pacific ,39.9111,46.7892,1397,AZ,AZE,Xocalı,Xocalı
Heydarabad,Azerbaijan,Asia & Pacific ,39.7229,44.8485,,AZ,AZE,Sədərək,Heydərabad
Ucar,Azerbaijan,Asia & Pacific ,40.5121,47.6519,,AZ,AZE,Ucar,Ucar
Qubadli,Azerbaijan,Asia & Pacific ,39.3439,46.5797,73,AZ,AZE,Qubadlı,Qubadlı
Sarur,Azerbaijan,Asia & Pacific ,39.5544,44.9826,,AZ,AZE,Şərur,Şərur
Lacin,Azerbaijan,Asia & Pacific ,39.6408,46.5469,,AZ,AZE,Laçın,Laçın
Yardimli,Azerbaijan,Asia & Pacific ,38.9206,48.2372,,AZ,AZE,Yardımlı,Yardımlı
Fuzuli,Azerbaijan,Asia & Pacific ,39.6003,47.1431,,AZ,AZE,Füzuli,Füzuli
Qabala,Azerbaijan,Asia & Pacific ,40.9825,47.8491,,AZ,AZE,Qəbələ,Qəbələ
Cabrayil,Azerbaijan,Asia & Pacific ,39.4,47.0261,,AZ,AZE,Cəbrayıl,Cəbrayıl
Samux,Azerbaijan,Asia & Pacific ,40.7649,46.4087,,AZ,AZE,Samux,Samux
Davaci,Azerbaijan,Asia & Pacific ,41.2012,48.9871,,AZ,AZE,Şabran,Dəvəçi
Qivraq,Azerbaijan,Asia & Pacific ,39.3994,45.1151,,AZ,AZE,Kəngərli,Qıvraq
Kalbacar,Azerbaijan,Asia & Pacific ,40.1098,46.0445,,AZ,AZE,Kəlbəcər,Kəlbəcər
Susa,Azerbaijan,Asia & Pacific ,39.7601,46.7499,,AZ,AZE,Şuşa,Şuşa
Xocavand,Azerbaijan,Asia & Pacific ,39.795,47.1117,,AZ,AZE,Xocavənd,Xocavənd
Sahbuz,Azerbaijan,Asia & Pacific ,39.4072,45.5739,,AZ,AZE,Şahbuz,Şahbuz
Xizi,Azerbaijan,Asia & Pacific ,40.9111,49.0694,,AZ,AZE,Xızı,Xızı
Qaracuxur,Azerbaijan,Asia & Pacific ,40.3969,49.9733,85900,AZ,AZE,Bakı,Qaraçuxur
Sirvan,Azerbaijan,Asia & Pacific ,39.9319,48.9203,58253,AZ,AZE,Şirvan,Şirvan
Xankandi,Azerbaijan,Asia & Pacific ,39.8153,46.7519,49848,AZ,AZE,Xankəndi,Xankəndi
Qazyan,Azerbaijan,Asia & Pacific ,39.2015,46.415,42288,AZ,AZE,Qubadlı,Qəzyan
Buzovna,Azerbaijan,Asia & Pacific ,40.5167,50.1167,31500,AZ,AZE,Bakı,Buzovna
Amircan,Azerbaijan,Asia & Pacific ,40.4236,49.9886,29800,AZ,AZE,Bakı,Əmircan
Samaxi,Azerbaijan,Asia & Pacific ,40.6339,48.6392,24681,AZ,AZE,Şamaxı,Şamaxı
Qazmalar,Azerbaijan,Asia & Pacific ,40.9814,47.8458,11867,AZ,AZE,Qəbələ,Qazmalar
Xudat,Azerbaijan,Asia & Pacific ,41.6339,48.6772,10894,AZ,AZE,Xaçmaz,Xudat
Goytapa,Azerbaijan,Asia & Pacific ,39.1167,48.5953,10067,AZ,AZE,Cəlilabad,Göytəpə
Liman,Azerbaijan,Asia & Pacific ,38.8733,48.8139,8661,AZ,AZE,Lənkəran,Liman
Babak,Azerbaijan,Asia & Pacific ,39.1111,45.4114,5600,AZ,AZE,Babək,Babək
Agdam,Azerbaijan,Asia & Pacific ,40.9053,45.5564,0,AZ,AZE,Tovuz,Ağdam
Nassau,"Bahamas, The",South/Latin America ,25.0667,-77.3333,274400,BS,BHS,,Nassau
Freeport City,"Bahamas, The",South/Latin America ,26.5333,-78.7,25383,BS,BHS,City of Freeport,Freeport City
Marsh Harbour,"Bahamas, The",South/Latin America ,26.4,-77.17,6283,BS,BHS,Central Abaco,Marsh Harbour
Manama,Bahrain,Arab States ,26.2167,50.5831,157474,BH,BHR,Al ‘Āşimah,Manama
Al Muharraq,Bahrain,Arab States ,26.25,50.6167,75000,BH,BHR,Al Muḩarraq,Al Muḩarraq
Madinat Hamad,Bahrain,Arab States ,26.1128,50.5139,52700,BH,BHR,Ash Shamālīyah,Madīnat Ḩamad
Madinat `Isa,Bahrain,Arab States ,26.1736,50.5478,40000,BH,BHR,Al Janūbīyah,Madīnat ‘Īsá
Dhaka,Bangladesh,Asia & Pacific ,23.7161,90.3961,15443000,BD,BGD,Dhaka,Dhaka
Chattogram,Bangladesh,Asia & Pacific ,22.335,91.8325,2581643,BD,BGD,Chittagong,Chattogram
Khulna,Bangladesh,Asia & Pacific ,22.8167,89.55,1311100,BD,BGD,Khulna,Khulna
Sylhet,Bangladesh,Asia & Pacific ,24.9,91.8667,479837,BD,BGD,Sylhet,Sylhet
Rajshahi,Bangladesh,Asia & Pacific ,24.3667,88.6,448087,BD,BGD,Rājshāhi,Rājshāhi
Comilla,Bangladesh,Asia & Pacific ,23.4704,91.17,389411,BD,BGD,Chittagong,Comilla
Mymensingh,Bangladesh,Asia & Pacific ,24.7504,90.38,330126,BD,BGD,Mymensingh,Mymensingh
Rangpur,Bangladesh,Asia & Pacific ,25.75,89.25,294265,BD,BGD,Rangpur,Rangpur
Brahmanbaria,Bangladesh,Asia & Pacific ,23.9667,91.1,268279,BD,BGD,Chittagong,Brāhmanbāria
Jessore,Bangladesh,Asia & Pacific ,23.1704,89.2,243987,BD,BGD,Khulna,Jessore
Narayanganj,Bangladesh,Asia & Pacific ,23.6167,90.5,223622,BD,BGD,Dhaka,Nārāyanganj
Saidpur,Bangladesh,Asia & Pacific ,25.8004,89,232209,BD,BGD,Rangpur,Saidpur
Barishal,Bangladesh,Asia & Pacific ,22.7,90.3667,230000,BD,BGD,Barisāl,Barishal
Narsingdi,Bangladesh,Asia & Pacific ,23.9,90.7167,185128,BD,BGD,Dhaka,Narsingdi
Tangail,Bangladesh,Asia & Pacific ,24.25,89.92,180144,BD,BGD,Dhaka,Tāngāil
Jamalpur,Bangladesh,Asia & Pacific ,24.9004,89.95,167900,BD,BGD,Mymensingh,Jamālpur
Nawabganj,Bangladesh,Asia & Pacific ,24.5804,88.35,142361,BD,BGD,Rājshāhi,Nawābganj
Pabna,Bangladesh,Asia & Pacific ,24.0004,89.25,137888,BD,BGD,Rājshāhi,Pābna
Bridgetown,Barbados,South/Latin America ,13.0975,-59.6167,110000,BB,BRB,Saint Michael,Bridgetown
Minsk,Belarus,Europe ,53.9022,27.5618,2020600,BY,BLR,Minsk,Minsk
Homyel',Belarus,Europe ,52.4417,30.9833,510300,BY,BLR,Homyel’skaya Voblasts’,Homyel’
Vitsyebsk,Belarus,Europe ,55.1833,30.1667,364800,BY,BLR,Vitsyebskaya Voblasts’,Vitsyebsk
Mahilyow,Belarus,Europe ,53.9089,30.343,357100,BY,BLR,Mahilyowskaya Voblasts’,Mahilyow
Hrodna,Belarus,Europe ,53.6667,23.8167,356900,BY,BLR,Hrodzyenskaya Voblasts’,Hrodna
Brest,Belarus,Europe ,52.0847,23.6569,339700,BY,BLR,Brestskaya Voblasts’,Brest
Babruysk,Belarus,Europe ,53.15,29.2333,212200,BY,BLR,Mahilyowskaya Voblasts’,Babruysk
Baranavichy,Belarus,Europe ,53.1167,25.9833,175000,BY,BLR,Brestskaya Voblasts’,Baranavichy
Horad Barysaw,Belarus,Europe ,54.226,28.4922,155389,BY,BLR,Minskaya Voblasts’,Horad Barysaw
Pinsk,Belarus,Europe ,52.1228,26.095,126300,BY,BLR,Brestskaya Voblasts’,Pinsk
Orsha,Belarus,Europe ,54.5092,30.4258,108100,BY,BLR,Vitsyebskaya Voblasts’,Orsha
Mazyr,Belarus,Europe ,52.05,29.2333,105700,BY,BLR,Homyel’skaya Voblasts’,Mazyr
Lida,Belarus,Europe ,53.8872,25.3028,102700,BY,BLR,Hrodzyenskaya Voblasts’,Lida
Salihorsk,Belarus,Europe ,52.7842,27.5425,101400,BY,BLR,Minskaya Voblasts’,Salihorsk
Navapolatsk,Belarus,Europe ,55.5333,28.6667,98800,BY,BLR,Vitsyebskaya Voblasts’,Navapolatsk
Maladzyechna,Belarus,Europe ,54.3136,26.8517,91900,BY,BLR,Minskaya Voblasts’,Maladzyechna
Polatsk,Belarus,Europe ,55.4833,28.8,81000,BY,BLR,Vitsyebskaya Voblasts’,Polatsk
Svyetlahorsk,Belarus,Europe ,52.6333,29.7333,80700,BY,BLR,Homyel’skaya Voblasts’,Svyetlahorsk
Zhlobin,Belarus,Europe ,52.9,30.0333,77600,BY,BLR,Homyel’skaya Voblasts’,Zhlobin
Slutsk,Belarus,Europe ,53.0167,27.55,61700,BY,BLR,Minskaya Voblasts’,Slutsk
Kobryn,Belarus,Europe ,52.2167,24.3667,52600,BY,BLR,Brestskaya Voblasts’,Kobryn
Slonim,Belarus,Europe ,53.0833,25.3167,50100,BY,BLR,Hrodzyenskaya Voblasts’,Slonim
Vawkavysk,Belarus,Europe ,53.1667,24.4667,42600,BY,BLR,Hrodzyenskaya Voblasts’,Vawkavysk
Kalinkavichy,Belarus,Europe ,52.1333,29.3333,37700,BY,BLR,Homyel’skaya Voblasts’,Kalinkavichy
Smarhon',Belarus,Europe ,54.4836,26.4,36300,BY,BLR,Hrodzyenskaya Voblasts’,Smarhon’
Navahrudak,Belarus,Europe ,53.5833,25.8167,30800,BY,BLR,Hrodzyenskaya Voblasts’,Navahrudak
Horki,Belarus,Europe ,54.2833,30.9833,30500,BY,BLR,Mahilyowskaya Voblasts’,Horki
Asipovichy,Belarus,Europe ,53.3,28.65,29900,BY,BLR,Mahilyowskaya Voblasts’,Asipovichy
Dzyarzhynsk,Belarus,Europe ,53.6833,27.1333,29000,BY,BLR,Minskaya Voblasts’,Dzyarzhynsk
Byaroza,Belarus,Europe ,52.55,24.9667,28500,BY,BLR,Brestskaya Voblasts’,Byaroza
Vilyeyka,Belarus,Europe ,54.4833,26.9167,27400,BY,BLR,Minskaya Voblasts’,Vilyeyka
Krychaw,Belarus,Europe ,53.7194,31.7139,24500,BY,BLR,Mahilyowskaya Voblasts’,Krychaw
Luninyets,Belarus,Europe ,52.25,26.8,24000,BY,BLR,Brestskaya Voblasts’,Luninyets
Mar''ina Horka,Belarus,Europe ,53.5167,28.1417,20800,BY,BLR,Minskaya Voblasts’,Mar’’ina Horka
Pastavy,Belarus,Europe ,55.1167,26.8333,19300,BY,BLR,Vitsyebskaya Voblasts’,Pastavy
Pruzhany,Belarus,Europe ,52.5567,24.4644,18900,BY,BLR,Brestskaya Voblasts’,Pruzhany
Dobrush,Belarus,Europe ,52.4167,31.3167,18300,BY,BLR,Homyel’skaya Voblasts’,Dobrush
Hlybokaye,Belarus,Europe ,55.1333,27.6833,17800,BY,BLR,Vitsyebskaya Voblasts’,Hlybokaye
Zaslawye,Belarus,Europe ,54,27.2833,17600,BY,BLR,Minskaya Voblasts’,Zaslawye
Fanipal',Belarus,Europe ,53.75,27.3333,17500,BY,BLR,Minskaya Voblasts’,Fanipal’
Ivanava,Belarus,Europe ,52.1333,25.55,16600,BY,BLR,Brestskaya Voblasts’,Ivanava
Klimavichy,Belarus,Europe ,53.6167,31.95,15600,BY,BLR,Mahilyowskaya Voblasts’,Klimavichy
Masty,Belarus,Europe ,53.4,24.5333,15200,BY,BLR,Hrodzyenskaya Voblasts’,Masty
Lahoysk,Belarus,Europe ,54.2,27.85,15000,BY,BLR,Minskaya Voblasts’,Lahoysk
Drahichyn,Belarus,Europe ,52.1833,25.15,14900,BY,BLR,Brestskaya Voblasts’,Drahichyn
Zhabinka,Belarus,Europe ,52.2006,24.0233,14000,BY,BLR,Brestskaya Voblasts’,Zhabinka
Khoyniki,Belarus,Europe ,51.9,29.9667,13400,BY,BLR,Homyel’skaya Voblasts’,Khoyniki
Astravyets,Belarus,Europe ,54.6136,25.9553,13200,BY,BLR,Hrodzyenskaya Voblasts’,Astravyets
Stolin,Belarus,Europe ,51.8897,26.8507,12900,BY,BLR,Brestskaya Voblasts’,Stolin
Malaryta,Belarus,Europe ,51.7972,24.0808,12800,BY,BLR,Brestskaya Voblasts’,Malaryta
Mikashevichy,Belarus,Europe ,52.2167,27.4667,12600,BY,BLR,Brestskaya Voblasts’,Mikashevichy
Novalukoml',Belarus,Europe ,54.6658,29.1547,12600,BY,BLR,Vitsyebskaya Voblasts’,Novalukoml’
Haradok,Belarus,Europe ,55.4667,29.9833,11800,BY,BLR,Vitsyebskaya Voblasts’,Haradok
Lyuban',Belarus,Europe ,52.7819,28.0525,11600,BY,BLR,Minskaya Voblasts’,Lyuban’
Byelaazyorsk,Belarus,Europe ,52.45,25.1667,11400,BY,BLR,Brestskaya Voblasts’,Byelaazyorsk
Klyetsk,Belarus,Europe ,53.0636,26.6372,11400,BY,BLR,Minskaya Voblasts’,Klyetsk
Byerazino,Belarus,Europe ,53.8333,28.9833,11300,BY,BLR,Minskaya Voblasts’,Byerazino
Staryya Darohi,Belarus,Europe ,53.0394,28.265,11200,BY,BLR,Minskaya Voblasts’,Staryya Darohi
Uzda,Belarus,Europe ,53.4661,27.2244,10700,BY,BLR,Minskaya Voblasts’,Uzda
Byarozawka,Belarus,Europe ,53.7167,25.5,10400,BY,BLR,Hrodzyenskaya Voblasts’,Byarozawka
Kapyl',Belarus,Europe ,53.15,27.0917,10400,BY,BLR,Minskaya Voblasts’,Kapyl’
Skidal',Belarus,Europe ,53.5833,24.25,10300,BY,BLR,Hrodzyenskaya Voblasts’,Skidal’
Chavusy,Belarus,Europe ,53.8,30.9667,10300,BY,BLR,Mahilyowskaya Voblasts’,Chavusy
Baran',Belarus,Europe ,54.4833,30.3333,10200,BY,BLR,Vitsyebskaya Voblasts’,Baran’
Mstsislaw,Belarus,Europe ,54.0196,31.7247,10200,BY,BLR,Mahilyowskaya Voblasts’,Mstsislaw
Byalynichy,Belarus,Europe ,53.9956,29.7096,10000,BY,BLR,Mahilyowskaya Voblasts’,Byalynichy
Pyetrykaw,Belarus,Europe ,52.1333,28.5,10000,BY,BLR,Homyel’skaya Voblasts’,Pyetrykaw
Talachyn,Belarus,Europe ,54.4167,29.7,9900,BY,BLR,Vitsyebskaya Voblasts’,Talachyn
Valozhyn,Belarus,Europe ,54.0833,26.5167,9700,BY,BLR,Minskaya Voblasts’,Valozhyn
Braslaw,Belarus,Europe ,55.6397,27.0397,9400,BY,BLR,Vitsyebskaya Voblasts’,Braslaw
Buda-Kashalyova,Belarus,Europe ,52.7167,30.5667,8800,BY,BLR,Homyel’skaya Voblasts’,Buda-Kashalyova
Krupki,Belarus,Europe ,54.325,29.1361,8500,BY,BLR,Minskaya Voblasts’,Krupki
Kamyanyets,Belarus,Europe ,52.4028,23.8083,8400,BY,BLR,Brestskaya Voblasts’,Kamyanyets
Vyetka,Belarus,Europe ,52.5592,31.1808,8300,BY,BLR,Homyel’skaya Voblasts’,Vyetka
Narowlya,Belarus,Europe ,51.8,29.5,8300,BY,BLR,Homyel’skaya Voblasts’,Narowlya
Kirawsk,Belarus,Europe ,53.2686,29.4736,8200,BY,BLR,Mahilyowskaya Voblasts’,Kirawsk
Dzyatlava,Belarus,Europe ,53.45,25.4,8100,BY,BLR,Hrodzyenskaya Voblasts’,Dzyatlava
Cherykaw,Belarus,Europe ,53.5667,31.3667,8000,BY,BLR,Mahilyowskaya Voblasts’,Cherykaw
Myory,Belarus,Europe ,55.6167,27.6167,7900,BY,BLR,Vitsyebskaya Voblasts’,Myory
