,city_ascii,beer,bread,coffee,country,region,latitude,longitude,population
0,Doha,8.51,1.45,4.63,Qatar,Middle east ,25.3,51.5333,1312947.0
1,Amman,5.3,0.41,4.14,Jordan,Middle east ,31.95,35.9333,4007526.0
2,Newcastle,4.7,1.67,3.52,Australia,Asia & Pacific ,-32.9167,151.75,322278.0
3,Muscat,4.66,1.08,4.61,Oman,Middle east ,23.6139,58.5922,1421409.0
4,Melbourne,4.57,2.34,3.4,Australia,Asia & Pacific ,-37.8136,144.9631,5078193.0
5,Adelaide,4.54,2.1,3.31,Australia,Asia & Pacific ,-34.9289,138.6011,1345777.0
6,Trondheim,4.52,3.66,5.21,Norway,Europe ,63.44,10.4,183378.0
7,Brisbane,4.5,2.12,3.55,Australia,Asia & Pacific ,-27.4678,153.0281,2514184.0
8,Canberra,4.26,2.57,3.45,Australia,Asia & Pacific ,-35.2931,149.1269,426704.0
9,Sydney,4.09,2.05,3.27,Australia,Asia & Pacific ,-33.865,151.2094,5312163.0
10,Singapore,3.94,1.74,4.19,Singapore,Asia & Pacific ,1.3,103.8,5745000.0
11,Stavanger,3.93,3.8,5.3,Norway,Europe ,58.9701,5.7333,129300.0
12,Tromso,3.92,2.63,5.68,Norway,Europe ,69.6489,18.9551,38980.0
13,Dubai,3.9,1.35,5.09,United Arab Emirates,Middle east ,25.2697,55.3094,2502715.0
14,Auckland,3.87,2.2,3.59,New Zealand,Asia & Pacific ,-36.85,174.7833,1467800.0
15,Bergen,3.8,2.82,5.49,Norway,Europe ,60.3925,5.3233,257087.0
16,Perth,3.76,2.22,3.58,Australia,Asia & Pacific ,-31.9522,115.8589,2059484.0
17,Oslo,3.73,3.53,5.15,Norway,Europe ,59.9111,10.7528,693494.0
18,Richmond,3.71,2.63,4.54,United States,North America ,37.5295,-77.4756,1075798.0
19,Richmond,3.71,2.63,4.54,United States,North America ,37.9477,-122.339,110567.0
20,Richmond,3.71,2.63,4.54,United States,North America ,39.8318,-84.8905,42373.0
21,Richmond,3.71,2.63,4.54,United States,North America ,37.7306,-84.2926,40972.0
22,Richmond,3.71,2.63,4.54,United States,North America ,29.5825,-95.7602,12578.0
23,Richmond,3.71,2.63,4.54,United States,North America ,41.4983,-71.6608,7626.0
24,Richmond,3.71,2.63,4.54,United States,North America ,42.8094,-82.7518,6262.0
25,Richmond,3.71,2.63,4.54,United States,North America ,39.2755,-93.9731,5174.0
26,Halifax,3.67,2.37,3.33,Canada,North America ,44.6475,-63.5906,403131.0
27,Abu Dhabi,3.59,1.28,4.94,United Arab Emirates,Middle east ,24.4781,54.3686,1000000.0
28,Turku,3.48,1.89,4.19,Finland,Europe ,60.4517,22.27,187604.0
29,Fort Collins,3.47,2.93,4.29,United States,North America ,40.5478,-105.0656,312666.0
30,Johor Bahru,3.46,0.75,2.96,Malaysia,Asia & Pacific ,1.4556,103.7611,497097.0
31,Helsinki,3.46,2.69,4.94,Finland,Europe ,60.1756,24.9342,642045.0
32,Hobart,3.44,1.93,3.59,Australia,Asia & Pacific ,-42.8806,147.325,240342.0
33,Dublin,3.43,1.81,4.15,Ireland,Europe ,53.3425,-6.2658,1173179.0
34,Cork,3.41,2.29,3.84,Ireland,Europe ,51.9,-8.4731,208669.0
35,Belfast,3.4,1.33,3.6,United Kingdom,Europe ,54.5964,-5.93,333871.0
36,Boston,3.37,3.16,4.31,United States,North America ,42.3188,-71.0846,4688346.0
37,Boston,3.37,3.16,4.31,United States,North America ,42.6528,-78.7555,8029.0
38,Wellington,3.33,2.03,3.41,New Zealand,Asia & Pacific ,-41.2889,174.7772,418500.0
39,New York,3.29,3.78,4.82,United States,North America ,40.6943,-73.9249,18713220.0
40,Tel Aviv-Yafo,3.29,2.39,4.21,Israel,Europe ,32.0833,34.8,451523.0
41,Philadelphia,3.26,2.83,3.92,United States,North America ,40.0077,-75.1339,5649300.0
42,Philadelphia,3.26,2.83,3.92,United States,North America ,32.7761,-89.1221,7345.0
43,Reykjavik,3.26,3.66,4.61,Iceland,Europe ,64.1475,-21.935,128793.0
44,Tokyo,3.25,2.16,3.77,Japan,Asia & Pacific ,35.6897,139.6922,37977000.0
45,Lausanne,3.21,3.37,4.99,Switzerland,Europe ,46.5333,6.6333,138905.0
46,San Jose,3.2,3.22,4.66,United States,North America ,37.3019,-121.8486,1798103.0
47,Limerick,3.06,1.9,3.79,Ireland,Europe ,52.6653,-8.6238,58319.0
48,Arhus,3.05,2.87,6.57,Denmark,,,,
49,Colorado Springs,3.04,2.54,4.83,United States,North America ,38.8674,-104.7606,642413.0
50,Raleigh,3.04,2.78,4.29,United States,North America ,35.8325,-78.6435,1038738.0
51,Gold Coast,3.02,2.42,3.65,Australia,Asia & Pacific ,-28.0167,153.4,679127.0
52,Galway,3.01,1.74,3.78,Ireland,Europe ,53.2729,-9.0418,79504.0
53,Leeds,2.99,1.2,3.89,United Kingdom,Europe ,53.7997,-1.5492,1901934.0
54,Manama,2.99,1.25,4.69,Bahrain,Arab States ,26.2167,50.5831,157474.0
55,Luxembourg,2.99,2.94,4.11,Luxembourg,Europe ,49.6106,6.1328,122273.0
56,Petaling Jaya,2.97,0.95,2.87,Malaysia,Asia & Pacific ,3.1073,101.6067,638516.0
57,Manchester,2.97,1.37,3.81,United Kingdom,Europe ,53.4794,-2.2453,2705000.0
58,Dallas,2.96,2.72,4.14,United States,North America ,32.7936,-96.7662,5743938.0
59,Dallas,2.96,2.72,4.14,United States,North America ,44.9222,-123.3131,17859.0
60,Dallas,2.96,2.72,4.14,United States,North America ,33.9153,-84.8416,13981.0
61,Dallas,2.96,2.72,4.14,United States,North America ,41.3604,-75.9662,9230.0
62,Espoo,2.95,2.6,4.91,Finland,Europe ,60.21,24.66,269802.0
63,Aberdeen,2.94,1.23,3.64,United Kingdom,Europe ,57.15,-2.11,214610.0
64,San Diego,2.92,3.7,4.27,United States,North America ,32.8312,-117.1225,3220118.0
65,Calgary,2.91,2.0,3.43,Canada,North America ,51.05,-114.0667,1239220.0
66,Saskatoon,2.91,2.21,3.49,Canada,North America ,52.1333,-106.6833,246376.0
67,Vancouver,2.91,2.52,3.47,Canada,North America ,49.25,-123.1,2264823.0
68,Winnipeg,2.9,1.93,3.66,Canada,North America ,49.8844,-97.1464,705244.0
69,Haifa,2.9,2.24,3.77,Israel,Europe ,32.8,34.9833,281087.0
70,Victoria,2.88,2.69,3.57,Canada,North America ,48.4283,-123.3647,335696.0
71,Surabaya,2.87,1.19,2.28,Indonesia,Asia & Pacific ,-7.2458,112.7378,4975000.0
72,Fresno,2.85,1.85,4.61,United States,North America ,36.7831,-119.7941,703498.0
73,Fresno,2.85,1.85,4.61,United States,North America ,29.5358,-95.4696,24607.0
74,Portland,2.85,3.03,4.16,United States,North America ,45.5372,-122.65,2074775.0
75,Portland,2.85,3.03,4.16,United States,North America ,43.6773,-70.2715,203969.0
76,Portland,2.85,3.03,4.16,United States,North America ,27.8911,-97.3284,17268.0
77,Portland,2.85,3.03,4.16,United States,North America ,36.5883,-86.5194,12335.0
78,Portland,2.85,3.03,4.16,United States,North America ,41.5988,-72.589,9362.0
79,Portland,2.85,3.03,4.16,United States,North America ,40.4375,-84.9833,5793.0
80,Portland,2.85,3.03,4.16,United States,North America ,42.8696,-84.899,5104.0
81,Cambridge,2.79,1.57,3.9,United Kingdom,Europe ,52.2053,0.1192,66.0
82,San Francisco,2.78,3.9,4.69,United States,North America ,37.7562,-122.443,3592294.0
83,Grenoble,2.77,1.64,3.6,France,Europe ,45.1715,5.7224,687985.0
84,Denver,2.77,2.7,4.62,United States,North America ,39.7621,-104.8759,2876625.0
85,Dubrovnik,2.75,1.69,3.54,Croatia,Europe ,42.6403,18.1083,42615.0
86,New Orleans,2.75,3.25,5.08,United States,North America ,30.0687,-89.9288,1020886.0
87,Oxford,2.75,1.19,4.05,United Kingdom,Europe ,51.7519,-1.2578,154600.0
88,Sheffield,2.75,1.28,3.73,United Kingdom,Europe ,53.3833,-1.4667,685368.0
89,Jerusalem,2.74,1.65,3.76,Israel,Europe ,31.7833,35.2167,919438.0
90,London,2.73,1.38,4.03,United Kingdom,Europe ,51.5072,-0.1275,10979000.0
91,Miami,2.73,2.92,4.26,United States,North America ,25.7839,-80.2102,6445545.0
92,Miami,2.73,2.92,4.26,United States,North America ,36.8877,-94.8718,15571.0
93,Casablanca,2.72,0.81,1.8,Morocco,Arab States ,33.5992,-7.62,4370000.0
94,Oulu,2.72,2.06,3.66,Finland,Europe ,65.0142,25.4719,200526.0
95,Omaha,2.72,2.44,4.57,United States,North America ,41.2627,-96.0522,847819.0
96,Brooklyn,2.72,3.56,4.32,United States,North America ,40.6501,-73.9496,2559903.0
97,Brooklyn,2.72,3.56,4.32,United States,North America ,41.4349,-81.7498,10646.0
98,Brooklyn,2.72,3.56,4.32,United States,North America ,41.787,-71.9543,8243.0
99,Paris,2.71,2.23,4.47,France,Europe ,48.8566,2.3522,11020000.0
100,Jakarta,2.71,1.24,2.23,Indonesia,Asia & Pacific ,-6.2146,106.8451,34540000.0
101,Nantes,2.7,1.36,3.22,France,Europe ,47.2181,-1.5528,633690.0
102,Detroit,2.69,2.32,4.7,United States,North America ,42.3834,-83.1024,3506126.0
103,Quebec City,2.69,2.38,3.1,Canada,North America ,46.8139,-71.2081,705103.0
104,Atlanta,2.68,2.72,4.2,United States,North America ,33.7627,-84.4224,5449398.0
105,Atlanta,2.68,2.72,4.2,United States,North America ,33.1136,-94.1672,5526.0
106,Los Angeles,2.68,3.75,4.69,United States,North America ,34.1139,-118.4068,12750807.0
107,San Antonio,2.68,2.4,4.13,United States,North America ,29.4658,-98.5253,2049293.0
108,Nassau,2.67,3.35,4.5,Bahamas,,,,
109,Seattle,2.67,3.51,4.75,United States,North America ,47.6211,-122.3244,3789215.0
110,Tampere,2.66,2.37,4.37,Finland,Europe ,61.4981,23.7608,225118.0
111,Toronto,2.66,2.23,3.56,Canada,North America ,43.7417,-79.3733,5429524.0
112,Edmonton,2.65,2.06,3.57,Canada,North America ,53.5344,-113.4903,1062643.0
113,Christchurch,2.65,1.7,3.43,New Zealand,Asia & Pacific ,-43.5309,172.6365,377200.0
114,Osaka,2.64,1.88,3.65,Japan,Asia & Pacific ,34.6936,135.5019,14977000.0
115,Tampa,2.64,2.95,3.93,United States,North America ,27.9942,-82.4451,2908063.0
116,Buffalo,2.63,2.11,3.63,United States,North America ,42.9016,-78.8487,914341.0
117,Buffalo,2.63,2.11,3.63,United States,North America ,45.1796,-93.8644,16993.0
118,Bristol,2.63,1.52,3.79,United Kingdom,Europe ,51.45,-2.5833,724000.0
119,Jacksonville,2.63,2.96,4.06,United States,North America ,30.3322,-81.6749,1181496.0
120,Jacksonville,2.63,2.96,4.06,United States,North America ,34.7288,-77.3941,108856.0
121,Jacksonville,2.63,2.96,4.06,United States,North America ,34.8807,-92.1302,28235.0
122,Jacksonville,2.63,2.96,4.06,United States,North America ,39.7292,-90.2318,21685.0
123,Jacksonville,2.63,2.96,4.06,United States,North America ,31.9642,-95.2617,14337.0
124,Jacksonville,2.63,2.96,4.06,United States,North America ,33.8088,-85.7545,12544.0
125,Oakland,2.61,3.77,4.33,United States,North America ,37.7903,-122.2165,433031.0
126,Oakland,2.61,3.77,4.33,United States,North America ,41.0313,-74.2408,12926.0
127,Oakland,2.61,3.77,4.33,United States,North America ,35.2256,-89.5372,8891.0
128,Oakland,2.61,3.77,4.33,United States,North America ,44.5595,-69.7328,6260.0
129,Honolulu,2.57,4.66,5.33,United States,North America ,21.3294,-157.846,820987.0
130,Kuala Lumpur,2.55,0.8,2.87,Malaysia,Asia & Pacific ,3.1478,101.6953,8285000.0
131,London,2.54,1.97,3.45,Canada,North America ,42.9836,-81.2497,383822.0
132,Brampton,2.53,1.83,2.65,Canada,North America ,43.6833,-79.7667,593638.0
133,Saint Paul,2.53,2.75,4.25,United States,,,,
134,Washington,2.51,2.96,4.69,United States,North America ,38.9047,-77.0163,5379184.0
135,Washington,2.51,2.96,4.69,United States,North America ,37.1304,-113.4877,29174.0
136,Washington,2.51,2.96,4.69,United States,North America ,40.7049,-89.4346,16516.0
137,Washington,2.51,2.96,4.69,United States,North America ,35.5587,-77.0545,16014.0
138,Washington,2.51,2.96,4.69,United States,North America ,40.7587,-74.9825,15357.0
139,Washington,2.51,2.96,4.69,United States,North America ,38.5514,-91.0151,14417.0
140,Washington,2.51,2.96,4.69,United States,North America ,38.6587,-87.1591,13565.0
141,Washington,2.51,2.96,4.69,United States,North America ,40.174,-80.2466,13433.0
142,Washington,2.51,2.96,4.69,United States,North America ,41.2982,-91.6928,6594.0
143,Montpellier,2.49,1.74,3.31,France,Europe ,43.6119,3.8772,607896.0
144,Gent,2.48,1.94,3.53,Belgium,Europe ,51.0536,3.7253,262219.0
145,Uppsala,2.47,2.92,4.11,Sweden,Europe ,59.8498,17.6389,164535.0
146,Uppsala,2.47,2.92,4.11,Sweden,Europe ,59.8601,17.64,133117.0
147,Mississauga,2.46,2.22,2.84,Canada,North America ,43.6,-79.65,721599.0
148,Baltimore,2.46,2.21,3.88,United States,North America ,39.3051,-76.6144,2106068.0
149,Exeter,2.46,1.19,3.39,United Kingdom,Europe ,50.7167,-3.5333,124180.0
150,Indianapolis,2.46,2.07,3.52,United States,North America ,39.7771,-86.1458,1588961.0
151,Nagoya,2.45,2.06,3.99,Japan,Asia & Pacific ,35.1167,136.9333,9113000.0
152,Reading,2.45,1.64,3.37,United Kingdom,Europe ,51.4542,-0.9731,337108.0
153,Penang,2.45,1.11,2.94,Malaysia,,,,
154,Seoul,2.44,2.76,4.34,South Korea,,,,
155,Columbus,2.42,2.41,4.04,United States,North America ,39.9862,-82.985,1562009.0
156,Columbus,2.42,2.41,4.04,United States,North America ,32.51,-84.8771,261445.0
157,Columbus,2.42,2.41,4.04,United States,North America ,39.2093,-85.9183,59897.0
158,Columbus,2.42,2.41,4.04,United States,North America ,33.5088,-88.4096,31084.0
159,Columbus,2.42,2.41,4.04,United States,North America ,41.4368,-97.3563,23463.0
160,Columbus,2.42,2.41,4.04,United States,North America ,43.3354,-89.03,6793.0
161,Chicago,2.41,3.06,4.24,United States,North America ,41.8373,-87.6862,8604203.0
162,Edinburgh,2.4,1.37,3.7,United Kingdom,Europe ,55.953,-3.1889999999999996,488050.0
163,Glasgow,2.4,1.16,3.81,United Kingdom,Europe ,55.8609,-4.2514,985290.0
164,Kitchener,2.39,2.21,2.93,Canada,North America ,43.4186,-80.4728,470015.0
165,Charlotte,2.39,2.77,4.33,United States,North America ,35.208,-80.8304,1512923.0
166,Charlotte,2.39,2.77,4.33,United States,North America ,42.5662,-84.8304,12703.0
167,Houston,2.38,2.54,4.07,United States,North America ,29.7863,-95.3889,5464251.0
168,Ann Arbor,2.38,2.14,4.04,United States,North America ,42.2755,-83.7312,322267.0
169,Basel,2.37,3.14,5.68,Switzerland,Europe ,47.5606,7.5906,177595.0
170,Montreal,2.34,2.74,3.01,Canada,North America ,45.5089,-73.5617,3519595.0
171,Liverpool,2.34,1.28,3.67,United Kingdom,Europe ,53.4,-2.9833,864122.0
172,Beirut,2.33,1.04,5.11,Lebanon,Middle east ,33.8869,35.5131,361366.0
173,La Paz,2.32,1.09,2.63,Bolivia,South/Latin America ,-16.4942,-68.1475,2867504.0
174,Saint Louis,2.32,1.99,4.53,United States,,,,
175,Nashville,2.32,2.7,4.62,United States,North America ,36.1715,-86.7843,1081903.0
176,Nashville,2.32,2.7,4.62,United States,North America ,35.9692,-77.9555,5554.0
177,Plymouth,2.31,1.36,3.55,United Kingdom,Europe ,50.3714,-4.1422,267918.0
178,Rennes,2.3,1.46,3.27,France,Europe ,48.1147,-1.6794,727357.0
179,Strasbourg,2.3,1.37,3.11,France,Europe ,48.5833,7.7458,465069.0
180,Leicester,2.3,1.32,3.48,United Kingdom,Europe ,52.6333,-1.1333,508916.0
181,Louisville,2.3,1.89,4.88,United States,North America ,38.1663,-85.6485,1005654.0
182,Louisville,2.3,1.89,4.88,United States,North America ,39.9709,-105.1441,20816.0
183,Louisville,2.3,1.89,4.88,United States,North America ,40.8371,-81.2643,9360.0
184,Minneapolis,2.3,2.98,4.37,United States,North America ,44.9635,-93.2678,2977172.0
185,Cardiff,2.28,1.52,3.71,United Kingdom,,,,
186,Gothenburg,2.27,2.99,4.83,Sweden,Europe ,57.6717,11.981,600473.0
187,Kathmandu,2.27,0.54,1.75,Nepal,Asia & Pacific ,27.7167,85.3667,975453.0
188,Lyon,2.27,1.46,3.72,France,Europe ,45.76,4.84,516092.0
189,Birmingham,2.27,1.35,3.61,United Kingdom,Europe ,52.48,-1.9025,2897303.0
190,Geneva,2.26,3.22,4.99,Switzerland,Europe ,46.2,6.15,201818.0
191,Ottawa,2.26,2.37,3.36,Canada,North America ,45.4247,-75.695,989567.0
192,Vadodara,2.23,0.5,1.46,India,Asia & Pacific ,22.3,73.2,2065771.0
193,Antwerp,2.23,2.24,3.48,Belgium,Europe ,51.2211,4.3997,529247.0
194,Kelowna,2.22,2.19,3.51,Canada,North America ,49.8881,-119.4956,142146.0
195,Salt Lake City,2.22,2.66,4.43,United States,North America ,40.7777,-111.9306,1098526.0
196,Sliema,2.22,1.7,2.93,Malta,Europe ,35.9125,14.5019,
197,Navi Mumbai,2.21,0.45,2.29,India,,,,
198,Patna,2.21,0.44,1.62,India,Asia & Pacific ,25.61,85.1414,1684222.0
199,Toulouse,2.19,1.81,3.21,France,Europe ,43.6045,1.444,968638.0
200,Nottingham,2.19,1.15,3.51,United Kingdom,Europe ,52.95,-1.15,768638.0
201,Indore,2.17,0.45,1.45,India,Asia & Pacific ,22.7206,75.8472,2201927.0
202,Lexington,2.16,2.36,4.42,United States,North America ,38.0423,-84.4587,317110.0
203,Lexington,2.16,2.36,4.42,United States,North America ,42.4456,-71.2307,33480.0
204,Lexington,2.16,2.36,4.42,United States,North America ,33.989000000000004,-81.2202,22157.0
205,Lexington,2.16,2.36,4.42,United States,North America ,35.8017,-80.2682,18933.0
206,Lexington,2.16,2.36,4.42,United States,North America ,40.7779,-99.7461,10345.0
207,Lexington,2.16,2.36,4.42,United States,North America ,37.7825,-79.444,9264.0
208,Lexington,2.16,2.36,4.42,United States,North America ,35.6618,-88.3945,6763.0
209,Tucson,2.15,2.42,4.67,United States,North America ,32.1545,-110.8782,888486.0
210,Brighton,2.15,1.43,3.89,United Kingdom,Europe ,50.8429,-0.1313,134293.0
211,Mumbai,2.15,0.5,2.15,India,Asia & Pacific ,18.9667,72.8333,23355000.0
212,Stockholm,2.13,2.7,4.76,Sweden,Europe ,59.3294,18.0686,972647.0
213,Heraklion,2.13,1.13,3.39,Greece,,,,
214,Raipur,2.13,0.32,1.37,India,Asia & Pacific ,21.2379,81.6337,1010087.0
215,Newcastle upon Tyne,2.12,1.11,3.71,United Kingdom,,,,
216,Marrakech,2.11,0.97,2.07,Morocco,Arab States ,31.6295,-7.9811,928850.0
217,Pune,2.11,0.48,1.83,India,Asia & Pacific ,18.5196,73.8553,7764000.0
218,Aalborg,2.1,3.16,7.08,Denmark,Europe ,57.0337,9.9166,122219.0
219,San Juan,2.09,2.31,2.88,Puerto Rico,South/Latin America ,18.4037,-66.0636,331165.0
220,Ahmedabad,2.08,0.53,1.69,India,,,,
221,San Jose,2.06,1.43,2.55,Costa Rica,South/Latin America ,9.9333,-84.0833,288054.0
222,Coventry,2.06,1.34,3.72,United Kingdom,Europe ,52.4081,-1.5106,362690.0
223,Memphis,2.06,1.85,4.86,United States,North America ,35.1046,-89.9773,1066967.0
224,Memphis,2.06,1.85,4.86,United States,North America ,27.5435,-82.5607,8788.0
225,Southampton,2.06,1.47,3.69,United Kingdom,Europe ,50.9,-1.4,855569.0
226,Zurich,2.05,3.18,5.65,Switzerland,Europe ,47.3786,8.54,434008.0
227,Sacramento,2.05,3.51,4.53,United States,North America ,38.5667,-121.4683,1898019.0
228,Rabat,2.04,0.62,1.65,Morocco,Arab States ,34.0253,-6.8361,1628000.0
229,Hamilton,2.04,2.21,2.97,Canada,North America ,43.2567,-79.8692,693645.0
230,Bergamo,2.04,2.22,1.76,Italy,Europe ,45.695,9.67,119806.0
231,Derby,2.03,1.46,3.48,United Kingdom,Europe ,52.9167,-1.4667,270500.0
232,Parma,2.02,1.84,1.81,Italy,Europe ,44.8015,10.328,194417.0
233,Kolkata,2.02,0.36,1.77,India,Asia & Pacific ,22.5411,88.3378,17560000.0
234,Windsor,2.01,2.15,3.27,Canada,North America ,42.2833,-83.0,276165.0
235,Windsor,2.01,2.15,3.27,Canada,North America ,45.5667,-72.0,5367.0
236,Bali,2.01,1.57,2.11,Indonesia,,,,
237,Thane,2.01,0.44,1.88,India,Asia & Pacific ,19.18,72.9633,1261517.0
238,Santo Domingo,2.0,1.61,1.75,Dominican Republic,South/Latin America ,18.4764,-69.8933,2581827.0
239,Chennai,2.0,0.5,1.99,India,Asia & Pacific ,13.0825,80.275,11324000.0
240,Bandung,2.0,1.28,1.81,Indonesia,Asia & Pacific ,-6.95,107.5667,2394873.0
241,Copenhagen,1.99,3.46,6.52,Denmark,Europe ,55.6786,12.5635,1085000.0
242,Nice,1.99,1.49,4.2,France,Europe ,43.7034,7.2663,1006402.0
243,Genoa,1.99,2.2,1.57,Italy,Europe ,44.4072,8.934,580097.0
244,Nagpur,1.98,0.36,1.9,India,Asia & Pacific ,21.1539,79.0831,2405665.0
245,Bern,1.97,2.23,5.18,Switzerland,Europe ,46.948,7.4474,133798.0
246,Lille,1.96,1.89,3.73,France,Europe ,50.6278,3.0583,232787.0
247,Austin,1.96,2.27,3.95,United States,North America ,30.3004,-97.7522,1687311.0
248,Austin,1.96,2.27,3.95,United States,North America ,43.6718,-92.9783,25626.0
249,Tacoma,1.96,3.56,4.03,United States,North America ,47.2431,-122.4531,217827.0
250,Albany,1.96,2.6,3.82,United States,North America ,42.6664,-73.7987,586383.0
251,Albany,1.96,2.6,3.82,United States,North America ,37.8898,-122.3018,19696.0
252,Albany,1.96,2.6,3.82,United States,North America ,31.5776,-84.1762,89217.0
253,Albany,1.96,2.6,3.82,United States,North America ,44.6274,-123.0966,62880.0
254,Chandigarh,1.95,0.51,1.95,India,Asia & Pacific ,30.7353,76.7911,1026459.0
255,Milan,1.95,2.25,1.98,Italy,Europe ,45.4669,9.19,1351562.0
256,Bhopal,1.95,0.45,1.41,India,Asia & Pacific ,23.25,77.4167,1883381.0
257,Kansas City,1.94,2.19,4.32,United States,North America ,39.1239,-94.5541,1636715.0
258,Kansas City,1.94,2.19,4.32,United States,North America ,39.1234,-94.7443,152960.0
259,Valletta,1.94,1.31,2.95,Malta,Europe ,35.8978,14.5125,6444.0
260,Reno,1.94,2.92,4.57,United States,North America ,39.5497,-119.8483,445020.0
261,Des Moines,1.93,2.8,3.98,United States,North America ,41.5725,-93.6105,473957.0
262,Des Moines,1.93,2.8,3.98,United States,North America ,47.3915,-122.3157,32348.0
263,Malmo,1.93,2.62,5.14,Sweden,Europe ,55.5932,13.0214,321845.0
264,Bangkok,1.93,1.35,2.23,Thailand,Asia & Pacific ,13.75,100.5167,17066000.0
265,Gurgaon,1.93,0.55,2.19,India,Asia & Pacific ,28.45,77.02,197340.0
266,Boise,1.89,2.61,4.51,United States,North America ,43.6007,-116.2312,389280.0
267,Lund,1.88,3.01,4.33,Sweden,,,,
268,Madison,1.88,3.3,3.89,United States,North America ,43.0826,-89.3931,447245.0
269,Madison,1.88,3.3,3.89,United States,North America ,34.7114,-86.7626,51593.0
270,Madison,1.88,3.3,3.89,United States,North America ,32.4738,-90.13,25661.0
271,Madison,1.88,3.3,3.89,United States,North America ,41.3398,-72.6278,18183.0
272,Madison,1.88,3.3,3.89,United States,North America ,38.7581,-85.3974,18109.0
273,Madison,1.88,3.3,3.89,United States,North America ,40.7586,-74.417,17654.0
274,Madison,1.88,3.3,3.89,United States,North America ,44.0062,-97.1084,6933.0
275,Phoenix,1.88,2.4,4.15,United States,North America ,33.5722,-112.0891,4219697.0
276,Bangalore,1.88,0.55,1.76,India,Asia & Pacific ,12.9699,77.598,13707000.0
277,Brussels,1.88,2.05,3.87,Belgium,Europe ,50.8467,4.3517,185103.0
278,Las Vegas,1.87,2.63,4.47,United States,North America ,36.2333,-115.2654,2104198.0
279,Las Vegas,1.87,2.63,4.47,United States,North America ,35.6011,-105.2206,14662.0
280,Berkeley,1.85,3.83,4.04,United States,North America ,37.8723,-122.27600000000001,121363.0
281,Berkeley,1.85,3.83,4.04,United States,North America ,39.9156,-74.1923,41630.0
282,Berkeley,1.85,3.83,4.04,United States,North America ,38.7439,-90.3361,8841.0
283,Berkeley,1.85,3.83,4.04,United States,North America ,41.8891,-87.9114,5048.0
284,Orlando,1.84,2.85,4.41,United States,North America ,28.4772,-81.3369,1822394.0
285,Nairobi,1.84,0.47,2.64,Kenya,Africa ,-1.2864,36.8172,5545000.0
286,Odense,1.83,3.29,6.24,Denmark,Europe ,55.4004,10.3833,158222.0
287,Hong Kong,1.83,1.94,4.75,Hong Kong,Asia & Pacific ,22.305,114.185,7347000.0
288,El Paso,1.82,2.27,3.61,United States,North America ,31.8479,-106.4309,843386.0
289,Patras,1.82,0.97,3.38,Greece,,,,
290,Taipei,1.82,1.98,3.46,Taiwan,Asia & Pacific ,25.0478,121.5319,2684567.0
291,Bologna,1.81,2.58,1.75,Italy,Europe ,44.4939,11.3428,388367.0
292,Istanbul,1.8,0.39,1.89,Turkey,Europe ,41.01,28.9603,15154000.0
293,Cincinnati,1.8,2.44,4.15,United States,North America ,39.1413,-84.5061,1662691.0
294,Hyderabad,1.8,0.54,1.57,India,Asia & Pacific ,17.3667,78.4667,9746000.0
295,Ankara,1.79,0.38,1.8,Turkey,Europe ,39.93,32.85,5503985.0
296,Vijayawada,1.79,0.54,1.78,India,,,,
297,Chiang Mai,1.78,1.42,2.07,Thailand,Asia & Pacific ,18.7889,98.9833,132634.0
298,Ghaziabad,1.78,0.48,1.73,India,Asia & Pacific ,28.6667,77.4167,2381452.0
299,Guwahati,1.78,0.4,1.54,India,Asia & Pacific ,26.1667,91.7667,957352.0
300,Pattaya,1.77,1.19,2.34,Thailand,,,,
301,Kochi,1.77,0.54,1.35,India,Asia & Pacific ,9.9667,76.2833,677381.0
302,Noida,1.77,0.48,1.97,India,,,,
303,Kaohsiung,1.75,2.55,2.86,Taiwan,Asia & Pacific ,22.6167,120.3,2773533.0
304,Izmir,1.74,0.34,1.73,Turkey,Europe ,38.4127,27.1384,4320519.0
305,Verona,1.74,1.98,1.85,Italy,Europe ,45.4386,10.9928,252520.0
306,Port of Spain,1.73,1.79,3.83,Trinidad And Tobago,South/Latin America ,10.6667,-61.5167,37074.0
307,Cairo,1.73,0.65,2.1,Egypt,Middle east ,30.0561,31.2394,19372000.0
308,Phuket,1.73,1.72,2.66,Thailand,Asia & Pacific ,7.8881,98.3975,77610.0
309,Antalya,1.72,0.31,1.66,Turkey,Europe ,36.9081,30.6956,2426356.0
310,Thessaloniki,1.72,1.01,3.82,Greece,Europe ,40.6333,22.95,315196.0
311,Santa Cruz,1.71,1.5,2.71,Bolivia,South/Latin America ,-17.7892,-63.1975,3151676.0
312,Bursa,1.71,0.34,1.7,Turkey,Europe ,40.1833,29.0667,2901396.0
313,Kingston,1.71,2.05,2.45,Jamaica,South/Latin America ,17.9714,-76.7931,580000.0
314,Rijeka,1.7,1.44,1.79,Croatia,Europe ,45.3297,14.4322,128624.0
315,Tartu,1.7,1.07,3.68,Estonia,Europe ,58.38,26.7225,93865.0
316,Athens,1.69,0.97,3.81,Greece,Europe ,37.9794,23.7161,664046.0
317,Colombo,1.69,0.38,2.33,Sri Lanka,Asia & Pacific ,6.9167,79.8333,752993.0
318,Linz,1.68,2.38,4.01,Austria,Europe ,48.3,14.2833,204846.0
319,Charleston,1.67,2.78,4.83,United States,North America ,32.8153,-79.9628,628377.0
320,Charleston,1.67,2.78,4.83,United States,North America ,38.3484,-81.6323,138706.0
321,Charleston,1.67,2.78,4.83,United States,North America ,39.4842,-88.1781,20090.0
322,Charleston,1.67,2.78,4.83,United States,North America ,36.9179,-89.3344,5417.0
323,Florence,1.66,1.92,1.58,Italy,Europe ,43.7714,11.2542,382258.0
324,Harare,1.66,1.15,2.77,Zimbabwe,Africa ,-17.8292,31.0522,1606000.0
325,Paramaribo,1.65,1.55,2.66,Suriname,South/Latin America ,5.8667,-55.1667,223757.0
326,Montevideo,1.64,1.99,2.58,Uruguay,South/Latin America ,-34.8667,-56.1667,1319108.0
327,Cape Town,1.64,0.95,1.91,South Africa,Africa ,-33.925,18.425,433688.0
328,Tallinn,1.63,0.98,3.38,Estonia,Europe ,59.4372,24.745,434562.0
329,Bhubaneswar,1.63,0.54,1.09,India,,,,
330,Coimbatore,1.63,0.47,1.36,India,Asia & Pacific ,11.0,76.9667,959823.0
331,Naples,1.61,1.58,1.53,Italy,Europe ,40.8333,14.25,972212.0
332,Mysore,1.61,0.37,1.5,India,Asia & Pacific ,12.3086,76.6531,1014227.0
333,Nicosia,1.6,2.21,3.99,Cyprus,Europe ,35.1725,33.365,330000.0
334,Delhi,1.6,0.46,1.88,India,Asia & Pacific ,28.66,77.23,29617000.0
335,Gaborone,1.59,0.94,2.94,Botswana,Africa ,-24.6569,25.9086,231626.0
336,Jaipur,1.59,0.43,1.64,India,Asia & Pacific ,26.9167,75.8667,3073350.0
337,Spokane,1.58,2.6,4.48,United States,North America ,47.6671,-117.43299999999999,412275.0
338,Algiers,1.57,0.13,0.66,Algeria,Arab States ,36.7764,3.0586,3415811.0
339,Lima,1.56,1.69,2.46,Peru,South/Latin America ,-12.05,-77.0333,9848000.0
340,Padova,1.55,1.77,1.7,Italy,Europe ,45.4064,11.8778,211560.0
341,Alexandria,1.54,0.46,1.72,Egypt,Middle east ,31.2,29.9167,4870000.0
342,Ranchi,1.54,0.42,1.58,India,Asia & Pacific ,23.3556,85.3347,1073440.0
343,Visakhapatnam,1.54,0.55,1.48,India,,,,
344,Kingston upon Hull,1.53,1.33,3.81,United Kingdom,Europe ,53.7444,-0.3325,573300.0
345,Makati,1.52,,2.78,Philippines,,,,
346,Rome,1.52,2.28,1.57,Italy,Europe ,41.8931,12.4828,2872800.0
347,Amsterdam,1.52,2.18,4.09,Netherlands,Europe ,52.35,4.9166,1031000.0
348,Pretoria,1.51,0.96,1.88,South Africa,Africa ,-25.7464,28.1881,741651.0
349,Lucknow (Lakhnau),1.51,0.46,1.68,India,,,,
350,Brescia,1.5,3.28,1.97,Italy,Europe ,45.5389,10.2203,197008.0
351,Trieste,1.5,2.42,1.91,Italy,Europe ,45.6361,13.8042,204338.0
352,Kaunas,1.5,1.11,2.86,Lithuania,Europe ,54.9,23.9333,288466.0
353,Turin,1.49,1.92,1.72,Italy,Europe ,45.0667,7.7,870952.0
354,Riga,1.48,1.1,3.25,Latvia,Europe ,56.9475,24.1069,698529.0
355,Johannesburg,1.48,0.96,1.86,South Africa,Africa ,-26.2044,28.0416,4434827.0
356,Guatemala City,1.48,2.22,2.12,Guatemala,South/Latin America ,14.6099,-90.5252,2450212.0
357,Quito,1.47,1.69,2.4,Ecuador,South/Latin America ,-0.2186,-78.5097,2011388.0
358,Cagliari,1.46,1.92,1.57,Italy,Europe ,39.2224,9.104,291511.0
359,Eindhoven,1.46,1.96,3.63,Netherlands,Europe ,51.43,5.5,398053.0
360,Utrecht,1.46,2.14,3.89,Netherlands,Europe ,52.1003,5.12,640000.0
361,Zagreb,1.45,1.13,1.89,Croatia,Europe ,45.8,15.95,790017.0
362,Limassol,1.45,2.06,3.76,Cyprus,Europe ,34.675,33.0443,235056.0
363,Larnaca,1.44,2.0,3.9,Cyprus,Europe ,34.9233,33.6305,48947.0
364,Breda,1.44,2.25,3.12,Netherlands,,,,
365,Delft,1.44,2.17,3.51,Netherlands,,,,
366,Haarlem,1.44,2.12,3.59,Netherlands,Europe ,52.3804,4.63,349957.0
367,San Salvador,1.43,1.88,2.72,El Salvador,South/Latin America ,13.6989,-89.1914,567698.0
368,Leiden,1.43,2.17,3.37,Netherlands,,,,
369,Maastricht,1.43,2.14,3.59,Netherlands,Europe ,50.853,5.6770000000000005,122378.0
370,Nijmegen,1.43,2.14,3.18,Netherlands,,,,
371,Guayaquil,1.41,1.53,2.18,Ecuador,South/Latin America ,-2.1833,-79.8833,2723665.0
372,Thiruvananthapuram,1.4,0.44,1.43,India,Asia & Pacific ,8.5,76.8997,743691.0
373,Havana,1.4,0.78,1.49,Cuba,South/Latin America ,23.1367,-82.3589,2141652.0
374,Groningen,1.4,2.13,3.73,Netherlands,Europe ,53.2204,6.58,216688.0
375,The Hague (Den Haag),1.39,2.3,3.32,Netherlands,,,,
376,Cancun,1.39,1.55,2.39,Mexico,South/Latin America ,21.1606,-86.8475,743626.0
377,Rotterdam,1.39,2.11,3.56,Netherlands,Europe ,51.92,4.48,1005000.0
378,Barcelona,1.37,1.65,2.24,Spain,Europe ,41.3825,2.1769,4588000.0
379,Enschede,1.37,2.2,3.35,Netherlands,,,,
380,Porto,1.37,1.38,1.84,Portugal,Europe ,41.1495,-8.6108,237591.0
381,Vilnius,1.36,1.11,2.85,Lithuania,Europe ,54.6833,25.2833,574147.0
382,Erbil (Irbil),1.36,0.8,1.91,Iraq,,,,
383,Damascus,1.36,0.84,1.46,Syria,Asia & Pacific ,33.5131,36.2919,1754000.0
384,Split,1.34,1.19,1.96,Croatia,Europe ,43.51,16.45,178102.0
385,Graz,1.34,2.71,3.76,Austria,Europe ,47.0667,15.4333,289440.0
386,Dresden,1.33,2.59,2.81,Germany,Europe ,51.0493,13.7384,555805.0
387,Santiago,1.32,1.43,3.06,Chile,South/Latin America ,-33.45,-70.6667,7007000.0
388,Ljubljana,1.31,1.44,2.01,Slovenia,Europe ,46.05,14.5167,284355.0
389,Catania,1.31,1.26,1.69,Italy,Europe ,37.5027,15.0873,311584.0
390,Paphos,1.31,1.23,3.14,Cyprus,Europe ,34.7761,32.4265,35961.0
391,Zadar,1.3,1.25,1.93,Croatia,Europe ,44.1167,15.2167,75082.0
392,Bari,1.29,1.32,1.52,Italy,Europe ,41.1253,16.8667,325183.0
393,Klaipeda,1.29,0.79,2.6,Lithuania,Europe ,55.7075,21.1428,164310.0
394,Lisbon,1.28,1.3,2.0,Portugal,Europe ,38.7452,-9.1604,506654.0
395,Zapopan,1.27,1.61,2.32,Mexico,South/Latin America ,20.7167,-103.4,1155790.0
396,Funchal,1.27,1.68,1.81,Portugal,Europe ,32.65,-16.9167,111892.0
397,Leuven,1.23,2.07,3.68,Belgium,,,,
398,Madrid,1.23,1.2,2.38,Spain,Europe ,40.4189,-3.6919,3266126.0
399,Durban,1.23,0.98,1.81,South Africa,Africa ,-29.8583,31.025,595061.0
400,Osijek,1.22,0.89,1.52,Croatia,Europe ,45.5603,18.6703,103162.0
401,Frankfurt,1.21,1.45,3.43,Germany,Europe ,50.1136,8.6797,753056.0
402,Manila,1.21,1.27,2.65,Philippines,Asia & Pacific ,14.5958,120.9772,23088000.0
403,Maribor,1.2,1.08,1.99,Slovenia,Europe ,46.55,15.6333,112325.0
404,Valencia,1.2,1.02,2.09,Spain,Europe ,39.4667,-0.375,794288.0
405,Heidelberg,1.2,1.68,3.65,Germany,Europe ,49.4122,8.71,160355.0
406,Salzburg,1.2,2.32,3.94,Austria,Europe ,47.7972,13.0477,154076.0
407,Palermo,1.19,1.24,1.78,Italy,Europe ,38.1157,13.3613,674435.0
408,Vienna,1.19,2.07,4.02,Austria,Europe ,48.2083,16.3731,1840573.0
409,Berlin,1.18,1.65,3.54,Germany,Europe ,52.5167,13.3833,3644826.0
410,Munich,1.18,2.16,3.82,Germany,Europe ,48.1372,11.5755,1471508.0
411,Braga,1.18,1.11,1.55,Portugal,Europe ,41.5333,-8.4167,181494.0
412,Mexico City,1.17,1.59,2.26,Mexico,South/Latin America ,19.4333,-99.1333,20996000.0
413,Monterrey,1.17,1.75,2.58,Mexico,South/Latin America ,25.6667,-100.3,4295000.0
414,Puebla,1.17,1.4,2.12,Mexico,South/Latin America ,19.0333,-98.1833,1576259.0
415,Yangon,1.17,0.92,2.27,Myanmar,,,,
416,Bremen,1.17,1.6,3.59,Germany,Europe ,53.1153,8.7975,724909.0
417,Leipzig,1.17,1.42,3.37,Germany,Europe ,51.35,12.3833,542529.0
418,Cebu,1.17,1.35,2.61,Philippines,,,,
419,Baghdad,1.17,0.72,1.48,Iraq,Middle east ,33.35,44.4167,5796000.0
420,Merida,1.16,1.41,2.44,Mexico,South/Latin America ,20.97,-89.62,892363.0
421,Nuremberg,1.16,1.56,3.43,Germany,Europe ,49.4528,11.0778,518365.0
422,Zaragoza (Saragossa),1.15,1.34,1.79,Spain,,,,
423,Hanover,1.15,1.12,3.18,Germany,,,,
424,Coimbra,1.15,,1.61,Portugal,Europe ,40.2111,-8.4291,143396.0
425,Podgorica,1.14,0.66,1.84,Montenegro,Europe ,42.4397,19.2661,174515.0
426,Hamburg,1.14,1.97,3.6,Germany,Europe ,53.55,10.0,1841179.0
427,Boulder,1.14,3.91,4.52,United States,North America ,40.0249,-105.2523,124345.0
428,Cuenca,1.14,1.7,2.09,Ecuador,South/Latin America ,-2.8974,-79.0045,329928.0
429,Aveiro,1.14,1.48,1.18,Portugal,Europe ,40.6389,-8.6553,78450.0
430,Tijuana,1.12,1.53,2.45,Mexico,South/Latin America ,32.525,-117.0333,2384609.0
431,Bonn,1.12,1.12,3.11,Germany,Europe ,50.7339,7.0997,327258.0
432,Cologne,1.12,1.58,3.26,Germany,Europe ,50.9422,6.9578,1085664.0
433,Stuttgart,1.12,2.21,3.51,Germany,Europe ,48.7761,9.1775,634830.0
434,Dusseldorf,1.12,1.37,3.57,Germany,Europe ,51.2311,6.7724,619294.0
435,Wuhan,1.11,,3.83,China,Asia & Pacific ,30.5872,114.2881,8962000.0
436,Medellin,1.1,0.9,1.25,Colombia,South/Latin America ,6.2447,-75.5748,2529403.0
437,Freiburg im Breisgau,1.09,1.65,3.18,Germany,Europe ,47.9947,7.8497,230241.0
438,Karlsruhe,1.09,1.3,3.39,Germany,Europe ,49.0167,8.4,313092.0
439,Granada,1.08,1.14,1.86,Spain,Europe ,37.1781,-3.6008,232462.0
440,Brasilia,1.08,1.23,1.34,Brazil,South/Latin America ,-15.7744,-48.0773,3015268.0
441,Aachen,1.08,1.3,2.84,Germany,Europe ,50.7762,6.0838,247380.0
442,Shenzhen,1.08,2.2,4.67,China,Asia & Pacific ,22.535,114.054,15929000.0
443,Bilbao,1.06,1.44,1.94,Spain,Europe ,43.2622,-2.9533,346843.0
444,Rio de Janeiro,1.06,1.27,1.29,Brazil,South/Latin America ,-22.9083,-43.1964,12272000.0
445,Mannheim,1.06,1.64,3.28,Germany,Europe ,49.4878,8.4661,309370.0
446,Debrecen,1.06,0.71,1.43,Hungary,Europe ,47.53,21.6392,201432.0
447,Natal,1.05,1.0,1.04,Brazil,South/Latin America ,-6.9838,-60.2699,980588.0
448,Natal,1.05,1.0,1.04,Brazil,South/Latin America ,-5.795,-35.2089,877662.0
449,Recife,1.05,1.09,1.29,Brazil,South/Latin America ,-8.0539,-34.8808,1555039.0
450,Darmstadt,1.05,1.55,3.07,Germany,Europe ,49.8667,8.65,159207.0
451,Barranquilla,1.05,1.03,1.28,Colombia,South/Latin America ,10.96,-74.8,1798000.0
452,Dumaguete,1.04,1.27,,Philippines,,,,
453,Sao Paulo,1.04,1.2,1.33,Brazil,South/Latin America ,-23.5504,-46.6339,22046000.0
454,Panama City,1.03,1.94,3.1,Panama,South/Latin America ,9.0,-79.5,880691.0
455,Quezon City,1.03,1.3,2.24,Philippines,Asia & Pacific ,14.6333,121.0333,2936116.0
456,Guangzhou,1.03,1.55,4.23,China,Asia & Pacific ,23.1288,113.259,20902000.0
457,Dar es Salaam,1.03,0.63,1.83,Tanzania,Africa ,-6.8,39.2833,6698000.0
458,Guadalajara,1.02,1.56,2.18,Mexico,South/Latin America ,20.6767,-103.3475,5253000.0
459,Augsburg,1.02,1.7,3.33,Germany,Europe ,48.3717,10.8983,295135.0
460,Accra,1.02,1.02,2.27,Ghana,Africa ,5.6037,-0.187,2291352.0
461,Kampala,1.02,0.87,2.35,Uganda,Africa ,0.3136,32.5811,1659600.0
462,Oradea,1.02,0.65,1.82,Romania,Europe ,47.0722,21.9211,196367.0
463,Baku,1.01,0.3,2.35,Azerbaijan,Asia & Pacific ,40.3667,49.8352,2181800.0
464,Goiania,1.01,1.27,0.98,Brazil,South/Latin America ,-16.6789,-49.2539,1393575.0
465,Arad,1.01,0.67,1.58,Romania,Europe ,46.1667,21.3167,159074.0
466,Cluj-Napoca,1.01,0.84,2.13,Romania,Europe ,46.78,23.5594,324576.0
467,Belo Horizonte,1.0,1.25,1.04,Brazil,South/Latin America ,-19.8917,-43.9478,5159000.0
468,Gdynia,1.0,0.75,2.64,Poland,Europe ,54.5189,18.5319,247672.0
469,Buenos Aires,0.99,1.2,1.74,Argentina,South/Latin America ,-34.5997,-58.3819,16157000.0
470,Curitiba,0.99,1.13,1.17,Brazil,South/Latin America ,-25.4297,-49.2719,1879355.0
471,Kigali,0.99,1.09,2.29,Rwanda,Africa ,-1.9536,30.0606,745261.0
472,Florianopolis,0.99,1.09,1.09,Brazil,South/Latin America ,-27.5933,-48.553000000000004,477798.0
473,Vladivostok,0.98,0.59,1.75,Russia,Europe ,43.1167,131.9,606589.0
474,Alicante,0.98,1.11,2.04,Spain,Europe ,38.3453,-0.4831,334887.0
475,Murcia,0.98,1.47,1.73,Spain,Europe ,37.9866,-1.1415,406807.0
476,Campinas,0.98,1.17,1.44,Brazil,South/Latin America ,-22.9009,-47.0573,1164098.0
477,Porto Alegre,0.98,1.03,1.33,Brazil,South/Latin America ,-30.0328,-51.23,1484941.0
478,Bratislava,0.97,1.22,2.65,Slovakia,Europe ,48.1447,17.1128,429564.0
479,Dortmund,0.97,1.76,3.57,Germany,Europe ,51.5139,7.4653,587010.0
480,Erlangen,0.97,1.81,4.1,Germany,Europe ,49.5964,11.0044,111962.0
481,Tunis,0.97,0.12,0.83,Tunisia,Arab States ,36.8008,10.18,1200000.0
482,Hangzhou,0.96,1.6,3.89,China,Asia & Pacific ,30.25,120.1675,6446000.0
483,Chengdu,0.96,1.55,4.06,China,Asia & Pacific ,30.6636,104.0667,11309000.0
484,Iasi,0.96,0.69,1.86,Romania,Europe ,47.1622,27.5889,290422.0
485,Fortaleza,0.95,1.09,1.1,Brazil,South/Latin America ,-3.7275,-38.5275,2452185.0
486,Essen,0.95,1.29,3.36,Germany,Europe ,51.4508,7.0131,583109.0
487,Chisinau,0.95,0.39,1.4,Moldova,Europe ,47.0056,28.8575,685900.0
488,Warsaw,0.95,0.93,2.95,Poland,Europe ,52.2167,21.0333,1790658.0
489,Addis Ababa,0.94,0.74,0.82,Ethiopia,Africa ,9.0272,38.7369,3041002.0
490,Chelyabinsk,0.94,0.42,1.45,Russia,Europe ,55.15,61.4,1202371.0
491,Budapest,0.93,0.87,1.71,Hungary,Europe ,47.4983,19.0408,1752286.0
492,Szeged,0.93,0.82,1.39,Hungary,Europe ,46.25,20.1667,160766.0
493,Krakow (Cracow),0.93,0.9,2.58,Poland,,,,
494,Astana (Nur-Sultan),0.92,0.38,1.89,Kazakhstan,,,,
495,Kosice,0.92,1.16,2.24,Slovakia,Europe ,48.7167,21.25,238593.0
496,Poznan,0.92,0.88,2.63,Poland,Europe ,52.4,16.9167,538633.0
497,Tirana,0.92,0.72,1.46,Albania,Europe ,41.33,19.82,418495.0
498,Sibiu,0.92,0.98,2.0,Romania,Europe ,45.8,24.15,147245.0
499,Olomouc,0.91,1.24,2.21,Czech Republic,,,,
500,Gdansk,0.91,0.85,2.61,Poland,Europe ,54.3667,18.6333,464254.0
501,Palma de Mallorca,0.9,1.46,2.52,Spain,,,,
502,Skopje,0.9,0.59,1.74,North Macedonia,,,,
503,Bucharest,0.9,0.82,2.53,Romania,Europe ,44.4,26.0833,1883425.0
504,Burgas,0.89,0.66,1.68,Bulgaria,Europe ,42.5,27.4667,226868.0
505,Malaga,0.89,1.14,1.86,Spain,Europe ,36.7167,-4.4167,574654.0
506,Beijing,0.89,1.85,4.56,China,Asia & Pacific ,39.905,116.3914,19433000.0
507,Lublin,0.89,0.68,2.31,Poland,Europe ,51.2333,22.5667,339850.0
508,Batumi,0.89,0.4,1.44,Georgia,Europe ,41.6458,41.6417,154600.0
509,Saint Petersburg,0.88,0.68,1.96,Russia,Europe ,59.95,30.3167,5351935.0
510,Prague,0.88,1.22,2.64,Czech Republic,,,,
511,Bogota,0.88,0.89,1.29,Colombia,South/Latin America ,4.6126,-74.0705,9464000.0
512,Queretaro,0.88,1.48,2.39,Mexico,South/Latin America ,20.5875,-100.3928,804663.0
513,Brasov,0.88,0.91,1.85,Romania,Europe ,45.65,25.6,290743.0
514,Puerto Vallarta,0.87,1.57,2.45,Mexico,South/Latin America ,20.6667,-105.2667,221200.0
515,Salvador,0.87,0.96,1.07,Brazil,South/Latin America ,-12.9708,-38.5108,2921087.0
516,Tbilisi,0.87,0.33,1.62,Georgia,Europe ,41.7225,44.7925,1118035.0
517,Szczecin,0.87,0.77,2.2,Poland,Europe ,53.4247,14.5553,403833.0
518,Kaliningrad,0.87,0.58,1.47,Russia,Europe ,54.7167,20.5,475056.0
519,Moscow,0.87,0.58,2.26,Russia,Europe ,55.7558,37.6178,17125000.0
520,Brno,0.86,1.14,2.36,Czech Republic,,,,
521,Constanta,0.86,0.61,2.38,Romania,Europe ,44.1733,28.6383,283872.0
522,Phnom Penh,0.86,1.44,2.25,Cambodia,Asia & Pacific ,11.5696,104.921,2129371.0
523,Timisoara,0.86,0.78,2.02,Romania,Europe ,45.7597,21.23,319279.0
524,Irkutsk,0.86,0.51,1.7,Russia,Europe ,52.2833,104.3,623736.0
525,Rostov-na-donu,0.86,0.4,1.59,Russia,,,,
526,Sofia,0.85,0.76,1.62,Bulgaria,Europe ,42.6975,23.3241,1355142.0
527,Ho Chi Minh City,0.85,0.8,2.01,Vietnam,Asia & Pacific ,10.8167,106.6333,13312000.0
528,Wroclaw,0.85,0.88,2.75,Poland,Europe ,51.1077,17.0353,638586.0
529,Krasnoyarsk,0.85,0.44,1.62,Russia,Europe ,56.0167,92.8667,1083865.0
530,Ulaanbaatar,0.84,0.58,2.2,Mongolia,Asia & Pacific ,47.9203,106.9172,1396288.0
531,Asuncion,0.84,0.51,1.77,Paraguay,South/Latin America ,-25.3,-57.6333,1870000.0
532,Yerevan,0.84,0.47,1.98,Armenia,Europe ,40.1814,44.5144,1075800.0
533,Rzeszow,0.84,0.88,1.98,Poland,Europe ,50.05,22.0,182548.0
534,Minsk,0.84,0.56,1.4,Belarus,Europe ,53.9022,27.5618,2020600.0
535,Lagos,0.83,1.05,2.47,Nigeria,Africa ,6.45,3.4,15279000.0
536,Krasnodar,0.83,0.48,1.69,Russia,Europe ,45.0333,38.9833,881476.0
537,Saratov,0.82,0.43,1.35,Russia,Europe ,51.5333,46.0,845300.0
538,Lodz,0.82,0.78,2.27,Poland,Europe ,51.7769,19.4547,690422.0
539,Pristina,0.82,0.44,1.21,Kosovo (Disputed Territory),,,,
540,Novosibirsk,0.82,0.42,1.72,Russia,Europe ,55.0333,82.9167,1602915.0
541,Volgograd,0.81,0.39,1.44,Russia,Europe ,48.7,44.4833,1015586.0
542,Perm,0.81,0.36,1.52,Russia,Europe ,58.0139,56.2489,1048005.0
543,Bishkek,0.81,0.25,1.43,Kyrgyzstan,Asia & Pacific ,42.8667,74.5667,1027200.0
544,Ploiesti,0.81,0.67,1.71,Romania,Europe ,44.9386,26.0225,209945.0
545,Ostrava,0.8,1.16,2.09,Czech Republic,,,,
546,Craiova,0.8,0.59,1.55,Romania,Europe ,44.3333,23.8167,269506.0
547,Voronezh,0.79,0.51,1.61,Russia,Europe ,51.6717,39.2106,1047549.0
548,Plovdiv,0.79,0.72,1.62,Bulgaria,Europe ,42.1433,24.7489,384088.0
549,Seville (Sevilla),0.79,1.27,1.74,Spain,,,,
550,Shanghai,0.79,2.21,4.52,China,Asia & Pacific ,31.1667,121.4667,22120000.0
551,Omsk,0.79,0.47,1.58,Russia,Europe ,54.9667,73.3833,1178391.0
552,Sarajevo,0.78,0.65,1.6,Bosnia And Herzegovina,Europe ,43.8667,18.4167,275524.0
553,Tyumen,0.78,0.42,1.62,Russia,Europe ,57.15,65.5333,744554.0
554,Bucaramanga,0.77,0.63,1.17,Colombia,South/Latin America ,7.1186,-73.1161,581130.0
555,Izhevsk,0.77,0.39,1.21,Russia,Europe ,56.85,53.2167,646277.0
556,Nizhny Novgorod,0.77,0.46,2.05,Russia,,,,
557,Goa,0.76,0.51,2.25,India,,,,
558,Varna,0.75,0.66,1.5,Bulgaria,Europe ,43.2078,27.9169,369162.0
559,Kazan,0.75,0.47,1.64,Russia,Europe ,55.7908,49.1144,1243500.0
560,Tomsk,0.75,0.46,1.48,Russia,Europe ,56.4886,84.9522,572740.0
561,Katowice,0.74,0.91,2.09,Poland,Europe ,50.25,19.0,276499.0
562,Samara,0.73,0.45,1.74,Russia,Europe ,53.1833,50.1167,1169719.0
563,Yekaterinburg,0.73,0.42,1.55,Russia,Europe ,56.8356,60.6128,1468833.0
564,Belgrade,0.73,0.52,1.86,Serbia,Europe ,44.8167,20.4667,1378682.0
565,Odessa (Odesa),0.73,0.54,1.2,Ukraine,,,,
566,Hanoi,0.73,0.71,1.66,Vietnam,Asia & Pacific ,21.0245,105.8412,7785000.0
567,Kiev (Kyiv),0.72,0.59,1.21,Ukraine,,,,
568,Cali,0.72,0.89,1.35,Colombia,South/Latin America ,3.44,-76.5197,2471474.0
569,Al Marsa,0.72,0.18,1.28,Tunisia,,,,
570,Lviv,0.72,0.54,1.2,Ukraine,Europe ,49.8419,24.0315,724314.0
571,Ufa,0.71,0.48,1.47,Russia,Europe ,54.7333,55.9667,1115560.0
572,Novi Sad,0.7,0.56,1.42,Serbia,Europe ,45.2644,19.8317,380000.0
573,Ivano-Frankivsk,0.7,0.49,0.92,Ukraine,Europe ,48.9228,24.7106,236602.0
574,Tashkent,0.69,0.21,1.39,Uzbekistan,Asia & Pacific ,41.3,69.2667,2424100.0
575,Kharkiv,0.69,0.51,1.19,Ukraine,Europe ,50.0,36.2292,1446107.0
576,Dnipro,0.68,0.44,1.08,Ukraine,Europe ,48.45,34.9833,983836.0
577,Maputo,0.68,0.72,1.67,Mozambique,Africa ,-25.9153,32.5764,1191613.0
578,Vinnytsia,0.68,0.48,0.77,Ukraine,Europe ,49.2372,28.4672,371855.0
579,Ternopil,0.68,0.46,0.97,Ukraine,Europe ,49.5667,25.6,218653.0
580,Zaporizhzhya,0.67,0.49,1.02,Ukraine,,,,
581,Sumy,0.67,0.47,0.71,Ukraine,Europe ,50.9068,34.7992,265758.0
582,Lusaka,0.65,0.56,1.6,Zambia,Africa ,-15.4167,28.2833,1742979.0
583,Da Nang,0.63,,1.67,Vietnam,Asia & Pacific ,16.0748,108.22399999999999,
584,Nis,0.62,0.48,1.26,Serbia,Europe ,43.3192,21.8961,183164.0
585,Banja Luka,0.61,0.81,1.03,Bosnia And Herzegovina,Europe ,44.7667,17.1833,199191.0
586,Almaty,0.58,0.31,1.77,Kazakhstan,Asia & Pacific ,43.25,76.9,1806833.0
587,Mykolaiv,0.57,0.4,0.98,Ukraine,Europe ,46.9667,32.0,498748.0
588,Hamilton,,6.81,5.39,Bermuda,North America ,32.2942,-64.7839,52320.0
589,Santa Clara,,4.55,5.0,United States,North America ,37.3645,-121.96799999999999,130365.0
590,Santa Clara,,4.55,5.0,United States,North America ,37.1311,-113.6561,8417.0
591,Santa Barbara,,4.41,4.75,United States,North America ,34.4285,-119.7202,202401.0
592,Santa Rosa,,4.2,4.56,United States,North America ,38.4458,-122.7067,324634.0
593,Fort Lauderdale,,4.13,4.29,United States,North America ,26.1412,-80.1464,182437.0
594,Anchorage,,3.94,4.41,United States,North America ,61.1508,-149.1091,247949.0
595,Bend,,3.83,3.78,United States,North America ,44.0562,-121.3087,109802.0
596,Irvine,,3.81,4.72,United States,North America ,33.6772,-117.7738,287401.0
597,West Palm Beach,,3.46,5.25,United States,North America ,26.7468,-80.1316,111955.0
598,Fremont,,3.31,4.33,United States,North America ,37.5265,-121.9852,241110.0
599,Fremont,,3.31,4.33,United States,North America ,41.4396,-96.4879,27456.0
600,Fremont,,3.31,4.33,United States,North America ,41.3536,-83.1148,22191.0
601,Alexandria,,3.31,4.5,United States,North America ,38.8185,-77.0861,159428.0
602,Alexandria,,3.31,4.5,United States,North America ,31.2923,-92.4702,80129.0
603,Alexandria,,3.31,4.5,United States,North America ,45.8777,-95.3766,21204.0
604,Alexandria,,3.31,4.5,United States,North America ,38.9621,-84.38600000000001,9715.0
605,Bellevue,,3.31,3.96,United States,North America ,47.5951,-122.1535,148164.0
606,Bellevue,,3.31,3.96,United States,North America ,40.4945,-80.055,8036.0
607,Bellevue,,3.31,3.96,United States,North America ,39.1011,-84.4776,5721.0
608,Bellevue,,3.31,3.96,United States,North America ,41.1535,-95.9357,53544.0
609,Bellevue,,3.31,3.96,United States,North America ,44.4593,-87.9554,15944.0
610,Bellevue,,3.31,3.96,United States,North America ,41.2743,-82.8394,8094.0
611,Long Beach,,3.12,4.33,United States,North America ,33.7981,-118.1675,462628.0
612,Long Beach,,3.12,4.33,United States,North America ,40.5887,-73.666,33454.0
613,Long Beach,,3.12,4.33,United States,North America ,30.3608,-89.165,16023.0
614,Fairfax,,3.12,3.75,United States,North America ,38.8531,-77.2998,24019.0
615,Fairfax,,3.12,3.75,United States,North America ,37.9886,-122.5952,7522.0
616,Queens,,3.12,4.71,United States,North America ,40.7498,-73.7976,2230722.0
617,Bellingham,,3.04,4.27,United States,North America ,48.7543,-122.4687,130641.0
618,Bellingham,,3.04,4.27,United States,North America ,42.0777,-71.4741,17016.0
619,Burnaby,,3.03,3.14,Canada,North America ,49.2667,-122.9667,232755.0
620,Jersey City,,2.92,3.72,United States,North America ,40.7161,-74.0682,262075.0
621,Eugene,,2.9,4.19,United States,North America ,44.0563,-123.1173,273439.0
622,Lugano,,2.84,4.21,Switzerland,Europe ,46.0103,8.9625,63185.0
623,Fredericton,,2.81,3.23,Canada,North America ,45.9636,-66.6431,58220.0
624,Pittsburgh,,2.79,3.73,United States,North America ,40.4396,-79.9762,1703266.0
625,Kingston,,2.77,2.95,Canada,,,,
626,Sarasota,,2.77,4.76,United States,North America ,27.3386,-82.5431,722243.0
627,Rochester,,2.76,3.89,United States,North America ,43.168,-77.6162,703952.0
628,Rochester,,2.76,3.89,United States,North America ,44.0151,-92.4778,119942.0
629,Rochester,,2.76,3.89,United States,North America ,43.299,-70.9787,31526.0
630,Rochester,,2.76,3.89,United States,North America ,42.6866,-83.1198,13296.0
631,Rochester,,2.76,3.89,United States,North America ,41.059,-86.196,7046.0
632,Rochester,,2.76,3.89,United States,North America ,41.76,-70.8385,5527.0
633,Tallahassee,,2.75,4.14,United States,North America ,30.4551,-84.2526,257601.0
634,Saint John's,,2.66,3.31,Canada,,,,
635,Knoxville,,2.65,4.33,United States,North America ,35.9692,-83.9496,586048.0
636,Knoxville,,2.65,4.33,United States,North America ,41.3188,-93.1024,7199.0
637,Riverside,,2.65,,United States,North America ,33.9381,-117.3948,2107852.0
638,Riverside,,2.65,,United States,North America ,40.0358,-74.9564,7884.0
639,Riverside,,2.65,,United States,North America ,39.7836,-84.1219,25133.0
640,Riverside,,2.65,,United States,North America ,41.831,-87.8169,8563.0
641,Riverside,,2.65,,United States,North America ,41.0319,-73.5827,8414.0
642,Riverside,,2.65,,United States,North America ,39.4777,-76.2385,5839.0
643,Albuquerque,,2.64,3.92,United States,North America ,35.1053,-106.6464,761195.0
644,Everett,,2.64,4.54,United States,North America ,47.9525,-122.1669,111475.0
645,Everett,,2.64,4.54,United States,North America ,42.4064,-71.0545,46451.0
646,Birmingham,,2.62,4.75,United States,North America ,33.5277,-86.7987,739573.0
647,Birmingham,,2.62,4.75,United States,North America ,42.5447,-83.2166,21389.0
648,North Vancouver,,2.59,3.85,Canada,North America ,49.3641,-123.0066,85935.0
649,Oklahoma City,,2.54,3.88,United States,North America ,35.4676,-97.5136,972943.0
650,Olympia,,2.53,4.59,United States,North America ,47.0417,-122.8959,200915.0
651,Cleveland,,2.49,4.16,United States,North America ,41.4767,-81.6804,1710093.0
652,Cleveland,,2.49,4.16,United States,North America ,35.1817,-84.8707,73596.0
653,Cleveland,,2.49,4.16,United States,North America ,33.744,-90.7285,14114.0
654,Cleveland,,2.49,4.16,United States,North America ,30.3374,-95.0931,10690.0
655,Cleveland,,2.49,4.16,United States,North America ,34.5971,-83.7621,5372.0
656,Chattanooga,,2.48,4.41,United States,North America ,35.0657,-85.2488,415501.0
657,Henderson,,2.48,3.85,United States,North America ,36.0133,-115.038,320189.0
658,Henderson,,2.48,3.85,United States,North America ,37.8397,-87.5798,28207.0
659,Henderson,,2.48,3.85,United States,North America ,36.3259,-78.4155,20238.0
660,Henderson,,2.48,3.85,United States,North America ,32.1576,-94.796,14569.0
661,Henderson,,2.48,3.85,United States,North America ,35.4446,-88.6531,6073.0
662,Huntsville,,2.48,4.56,United States,North America ,34.6988,-86.6412,319249.0
663,Huntsville,,2.48,4.56,United States,North America ,30.705,-95.5544,40466.0
664,Baton Rouge,,2.45,4.31,United States,North America ,30.4418,-91.131,570308.0
665,Tulsa,,2.42,4.08,United States,North America ,36.1284,-95.9042,671033.0
666,Vancouver,,2.42,4.66,United States,North America ,45.6366,-122.5967,184463.0
667,Lincoln,,2.4,3.55,United States,North America ,40.809,-96.6788,289490.0
668,Lincoln,,2.4,3.55,United States,North America ,38.8759,-121.2916,48275.0
669,Lincoln,,2.4,3.55,United States,North America ,41.9171,-71.4505,21644.0
670,Lincoln,,2.4,3.55,United States,North America ,40.1508,-89.3721,16993.0
671,Lincoln,,2.4,3.55,United States,North America ,33.5935,-86.1371,6781.0
672,Lincoln,,2.4,3.55,United States,North America ,42.4266,-71.3086,6726.0
673,Dayton,,2.4,3.98,United States,North America ,39.7797,-84.1998,718353.0
674,Dayton,,2.4,3.98,United States,North America ,30.0292,-94.9038,13987.0
675,Dayton,,2.4,3.98,United States,North America ,35.4912,-85.012,10410.0
676,Dayton,,2.4,3.98,United States,North America ,39.258,-119.5677,9508.0
677,Dayton,,2.4,3.98,United States,North America ,40.3815,-74.5137,7340.0
678,Dayton,,2.4,3.98,United States,North America ,45.1906,-93.4758,6686.0
679,Dayton,,2.4,3.98,United States,North America ,39.1127,-84.464,5609.0
680,Milwaukee,,2.39,3.75,United States,North America ,43.0642,-87.9673,1365787.0
681,Salem,,2.36,3.77,United States,North America ,44.9231,-123.0246,266804.0
682,Salem,,2.36,3.77,United States,North America ,42.5129,-70.902,43226.0
683,Salem,,2.36,3.77,United States,North America ,42.7902,-71.2202,29133.0
684,Salem,,2.36,3.77,United States,North America ,37.2864,-80.0555,25301.0
685,Salem,,2.36,3.77,United States,North America ,40.9049,-80.8491,17571.0
686,Salem,,2.36,3.77,United States,North America ,40.054,-111.67200000000001,8621.0
687,Salem,,2.36,3.77,United States,North America ,38.6279,-88.959,7730.0
688,Salem,,2.36,3.77,United States,North America ,38.6048,-86.0977,6422.0
689,Salem,,2.36,3.77,United States,North America ,39.5681,-75.4724,5235.0
690,Fort Worth,,2.34,4.28,United States,North America ,32.7811,-97.3473,909585.0
691,Red Deer,,2.32,3.63,Canada,North America ,52.2681,-113.8111,100418.0
692,Guelph,,2.3,4.2,Canada,North America ,43.55,-80.25,131794.0
693,Little Rock,,2.28,4.57,United States,North America ,34.7256,-92.3576,439815.0
694,Regina,,2.27,3.31,Canada,North America ,50.4547,-104.6067,215106.0
695,Surrey,,2.26,3.7,Canada,North America ,49.19,-122.8489,517887.0
696,Nanaimo,,2.25,3.27,Canada,North America ,49.1642,-123.9364,90504.0
697,Wichita,,2.18,4.0,United States,North America ,37.6896,-97.3442,482249.0
698,Darwin,,1.96,3.98,Australia,Asia & Pacific ,-12.4381,130.8411,136828.0
699,Grand Rapids,,1.95,4.23,United States,North America ,42.961999999999996,-85.6562,609314.0
700,Grand Rapids,,1.95,4.23,United States,North America ,47.238,-93.5327,9579.0
701,Akron,,1.91,3.5,United States,North America ,41.0798,-81.5219,565208.0
702,Antibes,,1.9,3.16,France,Europe ,43.5808,7.1239,72999.0
703,Marseille,,1.88,3.34,France,Europe ,43.2964,5.37,870018.0
704,Markham,,1.79,2.97,Canada,North America ,43.8767,-79.2633,328966.0
705,Coquitlam,,1.7,3.56,Canada,North America ,49.2839,-122.7919,139284.0
706,Dundee,,1.6,3.78,United Kingdom,Europe ,56.461999999999996,-2.9707,148270.0
707,Dunedin,,1.56,3.21,New Zealand,Asia & Pacific ,-45.8667,170.5,126255.0
708,Macao,,1.55,4.2,Macao,,,,
709,Hamilton,,1.51,3.56,New Zealand,Asia & Pacific ,-37.7833,175.2833,169300.0
710,Stoke-on-Trent,,1.5,3.8,United Kingdom,Europe ,53.0,-2.1833,372775.0
711,York,,1.49,3.85,United Kingdom,Europe ,53.9583,-1.0803,153717.0
712,Milton Keynes,,1.44,3.59,United Kingdom,Europe ,52.04,-0.76,229941.0
713,Norwich,,1.41,3.03,United Kingdom,Europe ,52.63,1.297,213166.0
714,Lincoln,,1.39,3.65,United Kingdom,Europe ,53.2344,-0.5386,97541.0
715,Male,,1.36,2.37,Maldives,Asia & Pacific ,4.175,73.5083,133019.0
716,Portsmouth,,1.36,3.68,United Kingdom,Europe ,50.8058,-1.0872,855679.0
717,Swansea,,1.35,4.36,United Kingdom,,,,
718,Al Ain,,1.21,5.01,United Arab Emirates,,,,
719,Davao,,1.19,2.9,Philippines,Asia & Pacific ,7.0667,125.6,1632991.0
720,Peterborough,,1.11,4.29,United Kingdom,Europe ,52.5833,-0.25,82.0
721,Bournemouth,,1.09,3.96,United Kingdom,Europe ,50.72,-1.88,183491.0
722,Kuwait City,,1.04,4.71,Kuwait,Middle east ,29.375,47.98,637411.0
723,Santa Cruz de Tenerife,,0.98,1.95,Spain,,,,
724,Sharjah,,0.93,3.35,United Arab Emirates,Middle east ,25.3575,55.3919,1400000.0
725,Ad Dammam,,0.92,3.1,Saudi Arabia,Middle east ,26.4333,50.1,903312.0
726,Yogyakarta,,0.91,1.6,Indonesia,Asia & Pacific ,-7.8014,110.3644,422732.0
727,Jeddah (Jiddah),,0.8,3.19,Saudi Arabia,,,,
728,Abidjan,,0.76,2.46,Ivory Coast,,,,
729,Riyadh,,0.74,3.28,Saudi Arabia,Middle east ,24.65,46.71,6881000.0
730,Ajman,,0.71,4.4,United Arab Emirates,,,,
731,Dhaka,,0.64,2.28,Bangladesh,Asia & Pacific ,23.7161,90.3961,15443000.0
732,Chittagong,,0.62,1.91,Bangladesh,,,,
733,Tehran,,0.62,1.97,Iran,Middle east ,35.7,51.4167,13633000.0
734,Rajkot,,0.61,1.49,India,Asia & Pacific ,22.2969,70.7984,1335397.0
735,Surat,,0.61,1.5,India,Asia & Pacific ,21.17,72.83,5807000.0
736,Agadir,,0.54,2.06,Morocco,Arab States ,30.4167,-9.5833,421844.0
737,Suva,,0.53,2.83,Fiji,Asia & Pacific ,-18.1333,178.4333,88271.0
738,Madurai,,0.52,0.98,India,Asia & Pacific ,9.9197,78.1194,1561129.0
739,Islamabad,,0.5,1.51,Pakistan,Asia & Pacific ,33.6989,73.0369,1365000.0
740,Lahore,,0.49,1.85,Pakistan,Asia & Pacific ,31.5497,74.3436,11021000.0
741,Rawalpindi,,0.47,,Pakistan,Asia & Pacific ,33.6007,73.0679,2098231.0
742,Karachi,,0.44,1.65,Pakistan,Asia & Pacific ,24.86,67.01,14835000.0
743,Kozhikode (Calicut),,0.41,0.74,India,,,,
744,Kabul,,0.39,1.06,Afghanistan,Asia & Pacific ,34.5328,69.1658,3678034.0
745,Peshawar,,0.39,,Pakistan,Asia & Pacific ,34.0,71.5,1970042.0
746,Mesa,,,4.4,United States,North America ,33.4017,-111.71799999999999,518012.0
747,Swindon,,,3.94,United Kingdom,Europe ,51.56,-1.78,192599.0
748,Tangier,,,2.75,Morocco,Arab States ,35.7847,-5.8125,947952.0
749,Aguascalientes,,,2.27,Mexico,South/Latin America ,21.875999999999998,-102.296,934424.0
